[
  {
    "id": "here:pds:place:704jx7ps-de0e1890fa000650faf90df72a5b1d29",
    "name": "Khách Sạn Hùng Anh, 35 Đường Thép Mới, Phường 12, Quận Tân Bình, Hồ Chí Minh, Việt Nam",
    "lat": 10.79668,
    "lng": 106.64826,
    "distance": 502
  },
  {
    "id": "here:pds:place:704jx7ps-aaa38b3878d40badd7e4072cb2f6a786",
    "name": "Thanh Hồng Hotel, 64/19 Đường Xuân Diệu, Phường 4, Quận Tân Bình, Hồ Chí Minh, Việt Nam",
    "lat": 10.79708,
    "lng": 106.65507,
    "distance": 506
  },
  {
    "id": "here:pds:place:704w3gv6-6509a0ef63284325a01fd34281af65c3",
    "name": "Q't Home, Hẻm 108 Trần Mai Ninh, Phường 12, Quận Tân Bình, Hồ Chí Minh, Việt Nam",
    "lat": 10.79216,
    "lng": 106.64704,
    "distance": 555
  },
  {
    "id": "here:pds:place:704w3gv6-07448d72a2964a05a0bb96fa225c641e",
    "name": "Khách Sạn Sao Đêm, 1262 Đường Lạc Long Quân, Phường 8, Quận Tân Bình, Hồ Chí Minh, Việt Nam",
    "lat": 10.78848,
    "lng": 106.65194,
    "distance": 595
  },
  {
    "id": "here:pds:place:704jx7ps-c56a4b4aa1ca01ce5cc186af37ad0fbb",
    "name": "Khách Sạn Hà Mai, Đường Lê Trung Nghĩa, Phường 12, Quận Tân Bình, Hồ Chí Minh, Việt Nam",
    "lat": 10.80065,
    "lng": 106.65222,
    "distance": 760
  },
  {
    "id": "here:pds:place:704w3gv6-1d18fcec62854a99990ee6de39586b20",
    "name": "Tiến Phát, 171 Đường Trường Chinh, Phường 12, Quận Tân Bình, Hồ Chí Minh, Việt Nam",
    "lat": 10.796,
    "lng": 106.64735,
    "distance": 546
  },
  {
    "id": "here:pds:place:704w3gv6-f9f1f368207393a7df8e89206390229b",
    "name": "Cửa Hàng Tạp Hóa 57, 57 Hẻm 127 Ni Sư Huỳnh Liên, Phường 10, Quận Tân Bình, Hồ Chí Minh, Việt Nam",
    "lat": 10.78219,
    "lng": 106.64744,
    "distance": 1380
  },
  {
    "id": "here:pds:place:704w3gv7-8d5a8755b5d28387c190480c984b27c5",
    "name": "Khuyến Mãi Vàng, Đường Phổ Quang, Phường 2, Quận Tân Bình, Hồ Chí Minh, Việt Nam",
    "lat": 10.80281,
    "lng": 106.66605,
    "distance": 1846
  },
  {
    "id": "here:pds:place:704xjxn4-a1b8eee0de360b2c84c38d50a24212c5",
    "name": "Hùng Phát, Đường Độc Lập, Phường Tân Thành, Quận Tân Phú, Hồ Chí Minh, Việt Nam",
    "lat": 10.79207,
    "lng": 106.6347,
    "distance": 1881
  },
  {
    "id": "here:pds:place:7041r4ve-dd22c594ad3d05f2a6551acc441a3147",
    "name": "Tân Thánh Hữu, 282D Đường Nguyễn Trọng Tuyển, Phường 10, Quận Phú Nhuận, Hồ Chí Minh, Việt Nam",
    "lat": 10.79821,
    "lng": 106.6695,
    "distance": 1991
  },
  {
    "id": "here:pds:place:704w3gve-cbd60bf8da1f41e6803c5269e080d570",
    "name": "Quan Mai Lan, Đường Hồng Hà, Phường 2, Quận Tân Bình, Hồ Chí Minh, Việt Nam",
    "lat": 10.81313,
    "lng": 106.66819,
    "distance": 542
  },
  {
    "id": "here:pds:place:704w3gv7-40aceff0299c482c95641a2106914181",
    "name": "Le Saigon Hotel, 17 Đường Đống Đa, Phường 2, Quận Tân Bình, Hồ Chí Minh, Việt Nam",
    "lat": 10.80932,
    "lng": 106.66554,
    "distance": 749
  },
  {
    "id": "here:pds:place:704w3gve-5de1a2d4a0b24b2ea50ecf9d98a5e4fc",
    "name": "Nhà Trọ, Hẻm A75/6E Bạch Đằng, Phường 2, Quận Tân Bình, Hồ Chí Minh, Việt Nam",
    "lat": 10.81633,
    "lng": 106.67201,
    "distance": 864
  },
  {
    "id": "here:pds:place:704w3gv7-1ee9855fb9654e698d3d5bb92a13e403",
    "name": "Khach San Vivian, 94-96 Đường Thăng Long, Phường 4, Quận Tân Bình, Hồ Chí Minh, Việt Nam",
    "lat": 10.80707,
    "lng": 106.66153,
    "distance": 1023
  },
  {
    "id": "here:pds:place:704w3gv7-90efdf0469f746e4a383fc9294dbcddf",
    "name": "Oceanlink Apartment, 148-150 Đường Phổ Quang, Phường 9, Quận Phú Nhuận, Hồ Chí Minh, Việt Nam",
    "lat": 10.80812,
    "lng": 106.67234,
    "distance": 1248
  },
  {
    "id": "here:pds:place:704xjxn4-d45df39b747007de8e7fb8e70ba6b047",
    "name": "Grasso (Việt Nam), 3G Đường Phổ Quang, Phường 2, Quận Tân Bình, Hồ Chí Minh, Việt Nam",
    "lat": 10.80465,
    "lng": 106.66635,
    "distance": 1276
  },
  {
    "id": "here:pds:place:704w3gv7-d472d29b414c4e1bacca5418199faee6",
    "name": "Mạng Trực Tuyến Meta, 163 Đường Đào Duy Anh, Phường 9, Quận Phú Nhuận, Hồ Chí Minh, Việt Nam",
    "lat": 10.80797,
    "lng": 106.67406,
    "distance": 1400
  },
  {
    "id": "here:pds:place:704w3gve-990d71c17752f86b9384a8e141062f8a",
    "name": "WM Quang Trung, 190 Đường Quang Trung, Phường 10, Quận Gò Vấp, Hồ Chí Minh, Việt Nam",
    "lat": 10.82914,
    "lng": 106.6725,
    "distance": 1733
  },
  {
    "id": "here:pds:place:704w3gve-e79d25198743eee48d9e70b062ac59d0",
    "name": "Trần Tiến, 849 Đường Nguyễn Kiệm, Phường 3, Quận Gò Vấp, Hồ Chí Minh, Việt Nam",
    "lat": 10.82289,
    "lng": 106.67893,
    "distance": 1795
  },
  {
    "id": "here:pds:place:704xjxn4-123795e4d1f60b97018a1957f4577ff9",
    "name": "HAMY cửa hàng, Đường Quang Trung, Phường 10, Quận Gò Vấp, Hồ Chí Minh, Việt Nam",
    "lat": 10.82763,
    "lng": 106.67702,
    "distance": 1920
  },
  {
    "id": "here:pds:place:704w3gvk-750e32b5f61ad063bc5e6e89557fce9b",
    "name": "Là Nhà Hotel, Hẻm 157 Nguyễn Gia Trí, Phường 25, Quận Bình Thạnh, Hồ Chí Minh, Việt Nam",
    "lat": 10.80539,
    "lng": 106.71375,
    "distance": 511
  },
  {
    "id": "here:pds:place:704w3gvk-e31488719d693195410ae6caf4259575",
    "name": "Khách Sạn Trang Thùy, 150 Đường Xô Viết Nghệ Tĩnh, Phường 17, Quận Bình Thạnh, Hồ Chí Minh, Việt Nam",
    "lat": 10.79682,
    "lng": 106.71055,
    "distance": 517
  },
  {
    "id": "here:pds:place:704w3gvk-9ec20ec29d7c9773720832b390af524d",
    "name": "Cali Hotel Apartment, Hẻm 59 Đinh Bộ Lĩnh, Phường 26, Quận Bình Thạnh, Hồ Chí Minh, Việt Nam",
    "lat": 10.80676,
    "lng": 106.70933,
    "distance": 642
  },
  {
    "id": "here:pds:place:704jx7ps-17c603f08a4d06cc56aae3cd54935b6c",
    "name": "Khách Sạn Đại Kim, 218 Hẻm 293 Bạch Đằng, Phường 24, Quận Bình Thạnh, Hồ Chí Minh, Việt Nam",
    "lat": 10.80334,
    "lng": 106.70564,
    "distance": 673
  },
  {
    "id": "here:pds:place:704w3gvk-71ab64dc9161647b96f7ed3a2549362e",
    "name": "Sunshine Nhật Ánh, 236/29 Đường Điện Biên Phủ, Phường 17, Quận Bình Thạnh, Hồ Chí Minh, Việt Nam",
    "lat": 10.79815,
    "lng": 106.7055,
    "distance": 744
  },
  {
    "id": "here:pds:place:704w3gvk-1a3a0be6af5f8d1815e10598ef3fce23",
    "name": "Komonoya, 561 Đường Điện Biên Phủ, Phường 25, Quận Bình Thạnh, Hồ Chí Minh, Việt Nam",
    "lat": 10.79968,
    "lng": 106.71838,
    "distance": 778
  },
  {
    "id": "here:pds:place:704w3gvk-4cd6f2e60c09a150fef9e35d2c2db35b",
    "name": "Mini, 110 Đường Phan Văn Hân, Phường 17, Quận Bình Thạnh, Hồ Chí Minh, Việt Nam",
    "lat": 10.79383,
    "lng": 106.70634,
    "distance": 1009
  },
  {
    "id": "here:pds:place:704w3gvk-c30d92811fedcee8a061a34991e2a237",
    "name": "Cửa Hàng Tạp Hóa Anh Cảnh, 37 Đường Ngô Tất Tố, Phường 22, Quận Bình Thạnh, Hồ Chí Minh, Việt Nam",
    "lat": 10.79129,
    "lng": 106.71419,
    "distance": 1161
  },
  {
    "id": "here:pds:place:704w3gvs-f9c766acce82c43d8d3578bbf49b19e8",
    "name": "Tạp Hoá Thanh Mai, Hẻm 39 Đường Số 4, Phường 26, Quận Bình Thạnh, Hồ Chí Minh, Việt Nam",
    "lat": 10.81155,
    "lng": 106.70783,
    "distance": 1199
  },
  {
    "id": "here:pds:place:704w3gvs-512091fcbe1248fb9ac189f7fc319c85",
    "name": "co.op mart-Chu Văn An, 70000 Đường Chu Văn An, Phường 12, Quận Bình Thạnh, Hồ Chí Minh, Việt Nam",
    "lat": 10.81076,
    "lng": 106.70321,
    "distance": 1379
  },
  {
    "id": "here:pds:place:704w3gvs-92c92a05a5ad17f0efe91daaa3a36ed1",
    "name": "Khách sạn Winstion Hotel, Hẻm 28/45 Đường Thanh Đa, Phường 27, Quận Bình Thạnh, Hồ Chí Minh, Việt Nam",
    "lat": 10.81893,
    "lng": 106.71893,
    "distance": 887
  },
  {
    "id": "here:pds:place:704w3gvs-a0fa86d53cec1d7e2968a7b4110ca3c2",
    "name": "Q&A Hotel, 512 Đường Nơ Trang Long, Phường 13, Quận Bình Thạnh, Hồ Chí Minh, Việt Nam",
    "lat": 10.82211,
    "lng": 106.70691,
    "distance": 978
  },
  {
    "id": "here:pds:place:704w3gvs-a56abe0e7ea51976daa1a6becdcdfaab",
    "name": "HOTEL THU HÀ, Hẻm 78 Bình Lợi, Phường 13, Quận Bình Thạnh, Hồ Chí Minh, Việt Nam",
    "lat": 10.82936,
    "lng": 106.70631,
    "distance": 1023
  },
  {
    "id": "here:pds:place:704xjxn4-34aecfb7449304f96c56f1232e0789b1",
    "name": "Ngọc Xanh-Emerald, Hẻm 209 Quốc Lộ 13, Phường 26, Quận Bình Thạnh, Hồ Chí Minh, Việt Nam",
    "lat": 10.81638,
    "lng": 106.7129,
    "distance": 1084
  },
  {
    "id": "here:pds:place:704w3gvs-d4749004c17e45199b9560e90f3503ac",
    "name": "ABC Hotel, 36 Đường 47, Phường Hiệp Bình Chánh, Thủ Đức, Hồ Chí Minh, Việt Nam",
    "lat": 10.83204,
    "lng": 106.72281,
    "distance": 1093
  },
  {
    "id": "here:pds:place:704w3gvs-512a91b1242841d69ce669d77be750d4",
    "name": "Uncle Bills, 240-242 Phạm Văn Đồng, Phường Hiệp Bình Chánh, Thủ Đức, Hồ Chí Minh, Việt Nam",
    "lat": 10.82747,
    "lng": 106.7217,
    "distance": 753
  },
  {
    "id": "here:pds:place:704w3gvs-f9c766acce82c43d8d3578bbf49b19e8",
    "name": "Tạp Hoá Thanh Mai, Hẻm 39 Đường Số 4, Phường 26, Quận Bình Thạnh, Hồ Chí Minh, Việt Nam",
    "lat": 10.81155,
    "lng": 106.70783,
    "distance": 1778
  },
  {
    "id": "here:pds:place:704w3gvs-512091fcbe1248fb9ac189f7fc319c85",
    "name": "co.op mart-Chu Văn An, 70000 Đường Chu Văn An, Phường 12, Quận Bình Thạnh, Hồ Chí Minh, Việt Nam",
    "lat": 10.81076,
    "lng": 106.70321,
    "distance": 2120
  },
  {
    "id": "here:pds:place:704w3gvs-dd751cc4ad33e1b7ec1ae1b75924674e",
    "name": "Eco Mart, Đường Hiệp Bình, Phường Hiệp Bình Chánh, Thủ Đức, Hồ Chí Minh, Việt Nam",
    "lat": 10.83888,
    "lng": 106.73215,
    "distance": 2365
  },
  {
    "id": "here:pds:place:704w3gvk-01a006af355cda1638083233ca196928",
    "name": "Nước Mía Phát Đạt Chanh Muối, 22C Đường Ngô Đức Kế, Phường 12, Quận Bình Thạnh, Hồ Chí Minh, Việt Nam",
    "lat": 10.80857,
    "lng": 106.69866,
    "distance": 2627
  },
  {
    "id": "here:pds:place:704d408k-ddb8f51044520c05478336dea2f0cfc9",
    "name": "Phòng Trọ Giá Rẻ Q.Gò Vấp, Hẻm 12 Nguyễn Tuân, Phường 3, Quận Gò Vấp, Hồ Chí Minh, Việt Nam",
    "lat": 10.81671,
    "lng": 106.68302,
    "distance": 511
  },
  {
    "id": "here:pds:place:704w3gve-6ff54142ee98d05e311f2e61b18b5a16",
    "name": "Mai Hoa, Đường Bạch Đằng, Phường 2, Quận Tân Bình, Hồ Chí Minh, Việt Nam",
    "lat": 10.81526,
    "lng": 106.67394,
    "distance": 559
  },
  {
    "id": "here:pds:place:704w3gve-0ec31fcb52e84a99a781fcd8305362f3",
    "name": "Khach San Kim do (Royal City Hotel), 786 Đường Nguyễn Kiệm, Phường 3, Quận Gò Vấp, Hồ Chí Minh, Việt Nam",
    "lat": 10.81989,
    "lng": 106.67886,
    "distance": 611
  },
  {
    "id": "here:pds:place:704jx7ps-6f6e986c012f0b343e0483d3722da9b0",
    "name": "Khách Sạn Xanh Sài Gòn, 740C Đường Nguyễn Kiệm, Phường 9, Quận Phú Nhuận, Hồ Chí Minh, Việt Nam",
    "lat": 10.80867,
    "lng": 106.67851,
    "distance": 639
  },
  {
    "id": "here:pds:place:704w3gv7-90efdf0469f746e4a383fc9294dbcddf",
    "name": "Oceanlink Apartment, 148-150 Đường Phổ Quang, Phường 9, Quận Phú Nhuận, Hồ Chí Minh, Việt Nam",
    "lat": 10.80812,
    "lng": 106.67234,
    "distance": 1007
  },
  {
    "id": "here:pds:place:704jx7ps-394c04062072072e16efc3243c7bba44",
    "name": "co.op mart-Nguyễn Kiệm, Đường Nguyễn Kiệm, Phường 9, Quận Phú Nhuận, Hồ Chí Minh, Việt Nam",
    "lat": 10.80872,
    "lng": 106.67824,
    "distance": 637
  },
  {
    "id": "here:pds:place:704w3gve-e79d25198743eee48d9e70b062ac59d0",
    "name": "Trần Tiến, 849 Đường Nguyễn Kiệm, Phường 3, Quận Gò Vấp, Hồ Chí Minh, Việt Nam",
    "lat": 10.82289,
    "lng": 106.67893,
    "distance": 944
  },
  {
    "id": "here:pds:place:704xjxn4-123795e4d1f60b97018a1957f4577ff9",
    "name": "HAMY cửa hàng, Đường Quang Trung, Phường 10, Quận Gò Vấp, Hồ Chí Minh, Việt Nam",
    "lat": 10.82763,
    "lng": 106.67702,
    "distance": 1487
  },
  {
    "id": "here:pds:place:704w3gv7-a233222639ea43e28fee9122e9e6fdd3",
    "name": "Big C Vietnam Head office, 163 Đường Phan Đăng Lưu, Phường 3, Quận Phú Nhuận, Hồ Chí Minh, Việt Nam",
    "lat": 10.80089,
    "lng": 106.68224,
    "distance": 1544
  },
  {
    "id": "here:pds:place:704w3gve-a870cfcdb4494791880818802a8027b6",
    "name": "co.op mart-Phan Văn Trị, Phan Văn Trị, Phường 7, Quận Gò Vấp, Hồ Chí Minh, Việt Nam",
    "lat": 10.8295,
    "lng": 106.68205,
    "distance": 1712
  },
  {
    "id": "here:pds:place:704jx7ps-af3cb27412be0d3febeee02b9a658527",
    "name": "Khách Sạn The Alcove - Nguyễn Đình Chính, Hẻm 140 Nguyễn Đình Chính, Phường 8, Quận Phú Nhuận, Hồ Chí Minh, Việt Nam",
    "lat": 10.79521,
    "lng": 106.67762,
    "distance": 520
  },
  {
    "id": "here:pds:place:704jx7ps-10e465effc6706e8e23b7aeac538a95a",
    "name": "Khách Sạn Sơn Lâm, 139/2 Hẻm 139 Phan Đăng Lưu, Phường 2, Quận Phú Nhuận, Hồ Chí Minh, Việt Nam",
    "lat": 10.80218,
    "lng": 106.68402,
    "distance": 536
  },
  {
    "id": "here:pds:place:704w3gv7-04eb338bbc014bbcbdc2dfb9f15c89f5",
    "name": "The Six Hotel, 31 Đường Hồ Văn Huê, Phường 9, Quận Phú Nhuận, Hồ Chí Minh, Việt Nam",
    "lat": 10.80188,
    "lng": 106.67611,
    "distance": 546
  },
  {
    "id": "here:pds:place:704w3gv7-129dc84bdb08e9f333e4f4f0b9945f06",
    "name": "SVĐ Phú Nhuận, Đường Trường Sa, Phường 2, Quận Phú Nhuận, Hồ Chí Minh, Việt Nam",
    "lat": 10.79629,
    "lng": 106.68444,
    "distance": 556
  },
  {
    "id": "here:pds:place:704w3gv7-955b5322ee564b48a18ddb439532e185",
    "name": "Khách Sạn Bảo Trâm, 10 Đường Cao Thắng, Phường 17, Quận Phú Nhuận, Hồ Chí Minh, Việt Nam",
    "lat": 10.79244,
    "lng": 106.68133,
    "distance": 751
  },
  {
    "id": "here:pds:place:704w3gv7-8731d85f02757480feffb631ee0029ae",
    "name": "Bamboo Nutriton - Thực Phẩm Dinh Dưỡng, Hẻm 50/2 Đường Phùng Văn Cung, Phường 7, Quận Phú Nhuận, Hồ Chí Minh, Việt Nam",
    "lat": 10.80056,
    "lng": 106.68572,
    "distance": 620
  },
  {
    "id": "here:pds:place:704jx7ps-394c04062072072e16efc3243c7bba44",
    "name": "co.op mart-Nguyễn Kiệm, Đường Nguyễn Kiệm, Phường 9, Quận Phú Nhuận, Hồ Chí Minh, Việt Nam",
    "lat": 10.80872,
    "lng": 106.67824,
    "distance": 1091
  },
  {
    "id": "here:pds:place:7041r4ve-dd22c594ad3d05f2a6551acc441a3147",
    "name": "Tân Thánh Hữu, 282D Đường Nguyễn Trọng Tuyển, Phường 10, Quận Phú Nhuận, Hồ Chí Minh, Việt Nam",
    "lat": 10.79821,
    "lng": 106.6695,
    "distance": 1177
  },
  {
    "id": "here:pds:place:704w3gv7-2ab33e8247a7472297f8222575aa5988",
    "name": "Cửa Hàng Coop Smile, Đường Lê Văn Sỹ, Phường 13, Quận Phú Nhuận, Hồ Chí Minh, Việt Nam",
    "lat": 10.79239,
    "lng": 106.671,
    "distance": 1256
  },
  {
    "id": "here:pds:place:704w3gv7-2a574fb5797b00c8f1a8008dde0ae48d",
    "name": "Cavani, Đường Vạn Kiếp, Phường 3, Quận Bình Thạnh, Hồ Chí Minh, Việt Nam",
    "lat": 10.80025,
    "lng": 106.69376,
    "distance": 1482
  },
  {
    "id": "here:pds:place:704w3gv7-595b781b882444d3aa74003287ae4f64",
    "name": "Phòng Trọ Giữ Xe, Đường Nơ Trang Long, Phường 14, Quận Bình Thạnh, Hồ Chí Minh, Việt Nam",
    "lat": 10.80465,
    "lng": 106.69511,
    "distance": 533
  },
  {
    "id": "here:pds:place:704jx7ps-2121f4ca326d0e4e9145238c1ac8fd10",
    "name": "Khách Sạn An Vui, Hẻm 57 Đường Điện Biên Phủ, Phường 15, Quận Bình Thạnh, Hồ Chí Minh, Việt Nam",
    "lat": 10.79569,
    "lng": 106.70107,
    "distance": 682
  },
  {
    "id": "here:pds:place:704xjxn4-114b41102f4b095189bc1fd6fe5e67ca",
    "name": "Khách Sạn Gia Bảo, 234B Đường Bạch Đằng, Phường 24, Quận Bình Thạnh, Hồ Chí Minh, Việt Nam",
    "lat": 10.80341,
    "lng": 106.70479,
    "distance": 710
  },
  {
    "id": "here:pds:place:704w3gvk-71ab64dc9161647b96f7ed3a2549362e",
    "name": "Sunshine Nhật Ánh, 236/29 Đường Điện Biên Phủ, Phường 17, Quận Bình Thạnh, Hồ Chí Minh, Việt Nam",
    "lat": 10.79815,
    "lng": 106.7055,
    "distance": 829
  },
  {
    "id": "here:pds:place:704w3gv7-f8a12ff433a74d45a851e7b8d2affe39",
    "name": "Hotel Bình Phương Ngân, Đường Hoa Sữa, Phường 7, Quận Phú Nhuận, Hồ Chí Minh, Việt Nam",
    "lat": 10.79944,
    "lng": 106.69129,
    "distance": 830
  },
  {
    "id": "here:pds:place:704w3gv7-2a574fb5797b00c8f1a8008dde0ae48d",
    "name": "Cavani, Đường Vạn Kiếp, Phường 3, Quận Bình Thạnh, Hồ Chí Minh, Việt Nam",
    "lat": 10.80025,
    "lng": 106.69376,
    "distance": 547
  },
  {
    "id": "here:pds:place:704w3gvk-01a006af355cda1638083233ca196928",
    "name": "Nước Mía Phát Đạt Chanh Muối, 22C Đường Ngô Đức Kế, Phường 12, Quận Bình Thạnh, Hồ Chí Minh, Việt Nam",
    "lat": 10.80857,
    "lng": 106.69866,
    "distance": 804
  },
  {
    "id": "here:pds:place:704xjxn4-138f54cb950c0bcf3ef6dd13f730436e",
    "name": "Lami Lami, 50BIS Đường Nguyễn Bỉnh Khiêm, Phường Đa Kao, Quận 1, Hồ Chí Minh, Việt Nam",
    "lat": 10.79179,
    "lng": 106.7002,
    "distance": 1075
  },
  {
    "id": "here:pds:place:704w3gv7-8dcc87bf46427fe33ab01589dab2ac7b",
    "name": "co.op mart-Rạch Miễu, Đường Hoa Sứ, Phường 7, Quận Phú Nhuận, Hồ Chí Minh, Việt Nam",
    "lat": 10.79882,
    "lng": 106.68884,
    "distance": 1106
  },
  {
    "id": "here:pds:place:704w3gvs-512091fcbe1248fb9ac189f7fc319c85",
    "name": "co.op mart-Chu Văn An, 70000 Đường Chu Văn An, Phường 12, Quận Bình Thạnh, Hồ Chí Minh, Việt Nam",
    "lat": 10.81076,
    "lng": 106.70321,
    "distance": 1160
  },
  {
    "id": "here:pds:place:704jx7ps-cd2d2161358404bdcda631beac5878fe",
    "name": "Hotel Ánh Dương, 239/67/24 Đường Hoàng Sa, Phường 11, Quận 3, Hồ Chí Minh, Việt Nam",
    "lat": 10.78789,
    "lng": 106.66993,
    "distance": 504
  },
  {
    "id": "here:pds:place:704w3gv7-3684ca672cb34f2a962f9bdbade4a993",
    "name": "Khách Sạn Bóc Lột Người Lao Động, Đường Huỳnh Văn Bánh, Phường 11, Quận Phú Nhuận, Hồ Chí Minh, Việt Nam",
    "lat": 10.79175,
    "lng": 106.67699,
    "distance": 519
  },
  {
    "id": "here:pds:place:704xjxn4-76463b37f99704893cc3d45bf61a5aee",
    "name": "Hoàng Hà Hotel, 57 Đường Trương Quốc Dung, Phường 10, Quận Phú Nhuận, Hồ Chí Minh, Việt Nam",
    "lat": 10.7966,
    "lng": 106.6727,
    "distance": 535
  },
  {
    "id": "here:pds:place:704w3gv7-852c3218cb9eedf6f9dced2eb43c36f6",
    "name": "Sài Gòn Khách sạn, 12 Hẻm 281/19-21 Lê Văn Sỹ, Phường 1, Quận Tân Bình, Hồ Chí Minh, Việt Nam",
    "lat": 10.7934,
    "lng": 106.66733,
    "distance": 565
  },
  {
    "id": "here:pds:place:704jx7ps-709ed7f634160f955d6d4ccccb677364",
    "name": "Khách Sạn Xuân Lộc, 9 Đường Trần Quang Diệu, Phường 13, Quận 3, Hồ Chí Minh, Việt Nam",
    "lat": 10.78711,
    "lng": 106.67831,
    "distance": 844
  },
  {
    "id": "here:pds:place:704w3gv7-0a5cec496a00d3fc3c7acf9ff6acca46",
    "name": "co.op mart-Nhiêu Lộc, Đường Trường Sa, Phường 12, Quận 3, Hồ Chí Minh, Việt Nam",
    "lat": 10.78635,
    "lng": 106.67542,
    "distance": 699
  },
  {
    "id": "here:pds:place:7041r4ve-dd22c594ad3d05f2a6551acc441a3147",
    "name": "Tân Thánh Hữu, 282D Đường Nguyễn Trọng Tuyển, Phường 10, Quận Phú Nhuận, Hồ Chí Minh, Việt Nam",
    "lat": 10.79821,
    "lng": 106.6695,
    "distance": 772
  },
  {
    "id": "here:pds:place:704w3gv7-56dbcb650a614107838c7822bbbe6289",
    "name": "Cửa Hàng Tạp Hóa 114, Hẻm 62/2 Đường Nguyễn Đình Chính, Phường 15, Quận Phú Nhuận, Hồ Chí Minh, Việt Nam",
    "lat": 10.79643,
    "lng": 106.67949,
    "distance": 944
  },
  {
    "id": "here:pds:place:704xjxn4-1d39195bdf7c04142a62888ce7967ade",
    "name": "Huyền Hoàn, 192 Đường Trần Quốc Thảo, Phường 9, Quận 3, Hồ Chí Minh, Việt Nam",
    "lat": 10.78558,
    "lng": 106.68199,
    "distance": 1270
  },
  {
    "id": "here:pds:place:704w3gv7-8d5a8755b5d28387c190480c984b27c5",
    "name": "Khuyến Mãi Vàng, Đường Phổ Quang, Phường 2, Quận Tân Bình, Hồ Chí Minh, Việt Nam",
    "lat": 10.80281,
    "lng": 106.66605,
    "distance": 1398
  },
  {
    "id": "here:pds:place:704w3gv7-cf312b5f2aede1648d9d0540de686cfc",
    "name": "Maison Royale, Hẻm 62 Lý Chính Thắng, Phường Võ Thị Sáu, Quận 3, Hồ Chí Minh, Việt Nam",
    "lat": 10.79009,
    "lng": 106.68629,
    "distance": 517
  },
  {
    "id": "here:pds:place:704w3gv7-3684ca672cb34f2a962f9bdbade4a993",
    "name": "Khách Sạn Bóc Lột Người Lao Động, Đường Huỳnh Văn Bánh, Phường 11, Quận Phú Nhuận, Hồ Chí Minh, Việt Nam",
    "lat": 10.79175,
    "lng": 106.67699,
    "distance": 528
  },
  {
    "id": "here:pds:place:704jx7ps-99188dbf33d70cbe8eedba8f3ae6d74b",
    "name": "Khách Sạn Nam Hoàng, 284 Đường Lê Văn Sỹ, Phường 14, Quận 3, Hồ Chí Minh, Việt Nam",
    "lat": 10.7869,
    "lng": 106.67976,
    "distance": 571
  },
  {
    "id": "here:pds:place:704w3gv7-129dc84bdb08e9f333e4f4f0b9945f06",
    "name": "SVĐ Phú Nhuận, Đường Trường Sa, Phường 2, Quận Phú Nhuận, Hồ Chí Minh, Việt Nam",
    "lat": 10.79629,
    "lng": 106.68444,
    "distance": 593
  },
  {
    "id": "here:pds:place:704jx7ps-226e2593ae88089403fc62cd62f5fadf",
    "name": "Kim Yen Hotel, 126 Đường Nguyễn Trọng Tuyển, Phường 15, Quận Phú Nhuận, Hồ Chí Minh, Việt Nam",
    "lat": 10.79743,
    "lng": 106.67804,
    "distance": 767
  },
  {
    "id": "here:pds:place:704w3gv7-56dbcb650a614107838c7822bbbe6289",
    "name": "Cửa Hàng Tạp Hóa 114, Hẻm 62/2 Đường Nguyễn Đình Chính, Phường 15, Quận Phú Nhuận, Hồ Chí Minh, Việt Nam",
    "lat": 10.79643,
    "lng": 106.67949,
    "distance": 592
  },
  {
    "id": "here:pds:place:704xjxn4-1d39195bdf7c04142a62888ce7967ade",
    "name": "Huyền Hoàn, 192 Đường Trần Quốc Thảo, Phường 9, Quận 3, Hồ Chí Minh, Việt Nam",
    "lat": 10.78558,
    "lng": 106.68199,
    "distance": 672
  },
  {
    "id": "here:pds:place:704w3gv7-0a5cec496a00d3fc3c7acf9ff6acca46",
    "name": "co.op mart-Nhiêu Lộc, Đường Trường Sa, Phường 12, Quận 3, Hồ Chí Minh, Việt Nam",
    "lat": 10.78635,
    "lng": 106.67542,
    "distance": 912
  },
  {
    "id": "here:pds:place:704w3gv7-a233222639ea43e28fee9122e9e6fdd3",
    "name": "Big C Vietnam Head office, 163 Đường Phan Đăng Lưu, Phường 3, Quận Phú Nhuận, Hồ Chí Minh, Việt Nam",
    "lat": 10.80089,
    "lng": 106.68224,
    "distance": 1032
  },
  {
    "id": "here:pds:place:704w3gv7-8dcc87bf46427fe33ab01589dab2ac7b",
    "name": "co.op mart-Rạch Miễu, Đường Hoa Sứ, Phường 7, Quận Phú Nhuận, Hồ Chí Minh, Việt Nam",
    "lat": 10.79882,
    "lng": 106.68884,
    "distance": 1109
  },
  {
    "id": "here:pds:place:704w3gv7-4ab425e32a89531f2ac4f810834227de",
    "name": "Khách Sạn Ngọc Vũ, 14/5 Hẻm 14 Đào Duy Anh, Phường 9, Quận Phú Nhuận, Hồ Chí Minh, Việt Nam",
    "lat": 10.80653,
    "lng": 106.67748,
    "distance": 509
  },
  {
    "id": "here:pds:place:704w3gv6-0d3b674e233d4513b58cf451573b7205",
    "name": "My villa hotel, Hẻm 54 Bạch Đằng, Phường 2, Quận Tân Bình, Hồ Chí Minh, Việt Nam",
    "lat": 10.81308,
    "lng": 106.67183,
    "distance": 569
  },
  {
    "id": "here:pds:place:704aabd1-87239cf763d600cfc0722527b70ab6a5",
    "name": "Khách Sạn Tân Sơn Nhất, 66 Đường Phổ Quang, Phường 2, Quận Tân Bình, Hồ Chí Minh, Việt Nam",
    "lat": 10.80617,
    "lng": 106.66818,
    "distance": 580
  },
  {
    "id": "here:pds:place:704w3gve-c824242cb434771447e9d3f1be16cde1",
    "name": "New Space Hotel, 51 Đường Lam Sơn, Phường 2, Quận Tân Bình, Hồ Chí Minh, Việt Nam",
    "lat": 10.81142,
    "lng": 106.66694,
    "distance": 767
  },
  {
    "id": "here:pds:place:704w3gv7-04eb338bbc014bbcbdc2dfb9f15c89f5",
    "name": "The Six Hotel, 31 Đường Hồ Văn Huê, Phường 9, Quận Phú Nhuận, Hồ Chí Minh, Việt Nam",
    "lat": 10.80188,
    "lng": 106.67611,
    "distance": 767
  },
  {
    "id": "here:pds:place:704jx7ps-394c04062072072e16efc3243c7bba44",
    "name": "co.op mart-Nguyễn Kiệm, Đường Nguyễn Kiệm, Phường 9, Quận Phú Nhuận, Hồ Chí Minh, Việt Nam",
    "lat": 10.80872,
    "lng": 106.67824,
    "distance": 564
  },
  {
    "id": "here:pds:place:704xjxn4-d45df39b747007de8e7fb8e70ba6b047",
    "name": "Grasso (Việt Nam), 3G Đường Phổ Quang, Phường 2, Quận Tân Bình, Hồ Chí Minh, Việt Nam",
    "lat": 10.80465,
    "lng": 106.66635,
    "distance": 833
  },
  {
    "id": "here:pds:place:7041r4ve-dd22c594ad3d05f2a6551acc441a3147",
    "name": "Tân Thánh Hữu, 282D Đường Nguyễn Trọng Tuyển, Phường 10, Quận Phú Nhuận, Hồ Chí Minh, Việt Nam",
    "lat": 10.79821,
    "lng": 106.6695,
    "distance": 1170
  },
  {
    "id": "here:pds:place:704w3gv7-a233222639ea43e28fee9122e9e6fdd3",
    "name": "Big C Vietnam Head office, 163 Đường Phan Đăng Lưu, Phường 3, Quận Phú Nhuận, Hồ Chí Minh, Việt Nam",
    "lat": 10.80089,
    "lng": 106.68224,
    "distance": 1281
  },
  {
    "id": "here:pds:place:704w3gv7-56dbcb650a614107838c7822bbbe6289",
    "name": "Cửa Hàng Tạp Hóa 114, Hẻm 62/2 Đường Nguyễn Đình Chính, Phường 15, Quận Phú Nhuận, Hồ Chí Minh, Việt Nam",
    "lat": 10.79643,
    "lng": 106.67949,
    "distance": 1475
  },
  {
    "id": "here:pds:place:704jx7ps-7b8c22fdb7fa0b29423a4b7ab647dffe",
    "name": "Khách Sạn Phú Gia Huy, Đường Lê Quang Định, Phường 14, Quận Bình Thạnh, Hồ Chí Minh, Việt Nam",
    "lat": 10.80765,
    "lng": 106.696,
    "distance": 563
  },
  {
    "id": "here:pds:place:704w3gv7-00a87e081af9b25602cb16227543c7ef",
    "name": "Khách Hàng, 21 Đường Vạn Kiếp, Phường 3, Quận Bình Thạnh, Hồ Chí Minh, Việt Nam",
    "lat": 10.80183,
    "lng": 106.69336,
    "distance": 606
  },
  {
    "id": "here:pds:place:704xjxn4-114b41102f4b095189bc1fd6fe5e67ca",
    "name": "Khách Sạn Gia Bảo, 234B Đường Bạch Đằng, Phường 24, Quận Bình Thạnh, Hồ Chí Minh, Việt Nam",
    "lat": 10.80341,
    "lng": 106.70479,
    "distance": 666
  },
  {
    "id": "here:pds:place:704jx7ps-f741f4131f47068b60237449d4270668",
    "name": "Cho Thuê Phòng Tháng, 160 Đường Bùi Đình Túy, Phường 12, Quận Bình Thạnh, Hồ Chí Minh, Việt Nam",
    "lat": 10.80807,
    "lng": 106.70398,
    "distance": 782
  },
  {
    "id": "here:pds:place:704jx7ps-2121f4ca326d0e4e9145238c1ac8fd10",
    "name": "Khách Sạn An Vui, Hẻm 57 Đường Điện Biên Phủ, Phường 15, Quận Bình Thạnh, Hồ Chí Minh, Việt Nam",
    "lat": 10.79569,
    "lng": 106.70107,
    "distance": 888
  },
  {
    "id": "here:pds:place:704w3gvk-01a006af355cda1638083233ca196928",
    "name": "Nước Mía Phát Đạt Chanh Muối, 22C Đường Ngô Đức Kế, Phường 12, Quận Bình Thạnh, Hồ Chí Minh, Việt Nam",
    "lat": 10.80857,
    "lng": 106.69866,
    "distance": 583
  },
  {
    "id": "here:pds:place:704w3gv7-2a574fb5797b00c8f1a8008dde0ae48d",
    "name": "Cavani, Đường Vạn Kiếp, Phường 3, Quận Bình Thạnh, Hồ Chí Minh, Việt Nam",
    "lat": 10.80025,
    "lng": 106.69376,
    "distance": 638
  },
  {
    "id": "here:pds:place:704w3gvs-512091fcbe1248fb9ac189f7fc319c85",
    "name": "co.op mart-Chu Văn An, 70000 Đường Chu Văn An, Phường 12, Quận Bình Thạnh, Hồ Chí Minh, Việt Nam",
    "lat": 10.81076,
    "lng": 106.70321,
    "distance": 962
  },
  {
    "id": "here:pds:place:704w3gv7-8dcc87bf46427fe33ab01589dab2ac7b",
    "name": "co.op mart-Rạch Miễu, Đường Hoa Sứ, Phường 7, Quận Phú Nhuận, Hồ Chí Minh, Việt Nam",
    "lat": 10.79882,
    "lng": 106.68884,
    "distance": 1187
  },
  {
    "id": "here:pds:place:704xjxn4-138f54cb950c0bcf3ef6dd13f730436e",
    "name": "Lami Lami, 50BIS Đường Nguyễn Bỉnh Khiêm, Phường Đa Kao, Quận 1, Hồ Chí Minh, Việt Nam",
    "lat": 10.79179,
    "lng": 106.7002,
    "distance": 1294
  },
  {
    "id": "here:pds:place:704xjxn4-114b41102f4b095189bc1fd6fe5e67ca",
    "name": "Khách Sạn Gia Bảo, 234B Đường Bạch Đằng, Phường 24, Quận Bình Thạnh, Hồ Chí Minh, Việt Nam",
    "lat": 10.80341,
    "lng": 106.70479,
    "distance": 504
  },
  {
    "id": "here:pds:place:704w3gvs-b7d699f28820f784e396f4396a74db7c",
    "name": "Khách Sạn Đa Lộc, 70000 Đường Chu Văn An, Phường 12, Quận Bình Thạnh, Hồ Chí Minh, Việt Nam",
    "lat": 10.8115,
    "lng": 106.70091,
    "distance": 505
  },
  {
    "id": "here:pds:place:704w3gvk-c75f14ec0e3364fa205b99baaab3a47b",
    "name": "Thu Le Hotel, 2 Đường Bùi Đình Túy, Phường 26, Quận Bình Thạnh, Hồ Chí Minh, Việt Nam",
    "lat": 10.80798,
    "lng": 106.70827,
    "distance": 514
  },
  {
    "id": "here:pds:place:7043f91b-55e8424b812e8eb87bb64280e6e42980",
    "name": "Tecco Central Home, Đường Nguyễn Thiện Thuật, Phường 24, Quận Bình Thạnh, Hồ Chí Minh, Việt Nam",
    "lat": 10.80499,
    "lng": 106.69937,
    "distance": 554
  },
  {
    "id": "here:pds:place:704w3gvs-a78f07c9f5b10874895f61352dc71b16",
    "name": "Khách Sạn Hoàng Yến, 111 Đường Nguyễn Xí, Phường 26, Quận Bình Thạnh, Hồ Chí Minh, Việt Nam",
    "lat": 10.81296,
    "lng": 106.70977,
    "distance": 889
  },
  {
    "id": "here:pds:place:704w3gvk-01a006af355cda1638083233ca196928",
    "name": "Nước Mía Phát Đạt Chanh Muối, 22C Đường Ngô Đức Kế, Phường 12, Quận Bình Thạnh, Hồ Chí Minh, Việt Nam",
    "lat": 10.80857,
    "lng": 106.69866,
    "distance": 543
  },
  {
    "id": "here:pds:place:704w3gvs-f9c766acce82c43d8d3578bbf49b19e8",
    "name": "Tạp Hoá Thanh Mai, Hẻm 39 Đường Số 4, Phường 26, Quận Bình Thạnh, Hồ Chí Minh, Việt Nam",
    "lat": 10.81155,
    "lng": 106.70783,
    "distance": 626
  },
  {
    "id": "here:pds:place:704w3gv7-2a574fb5797b00c8f1a8008dde0ae48d",
    "name": "Cavani, Đường Vạn Kiếp, Phường 3, Quận Bình Thạnh, Hồ Chí Minh, Việt Nam",
    "lat": 10.80025,
    "lng": 106.69376,
    "distance": 1360
  },
  {
    "id": "here:pds:place:704w3gvk-4cd6f2e60c09a150fef9e35d2c2db35b",
    "name": "Mini, 110 Đường Phan Văn Hân, Phường 17, Quận Bình Thạnh, Hồ Chí Minh, Việt Nam",
    "lat": 10.79383,
    "lng": 106.70634,
    "distance": 1580
  },
  {
    "id": "here:pds:place:704xjxn4-138f54cb950c0bcf3ef6dd13f730436e",
    "name": "Lami Lami, 50BIS Đường Nguyễn Bỉnh Khiêm, Phường Đa Kao, Quận 1, Hồ Chí Minh, Việt Nam",
    "lat": 10.79179,
    "lng": 106.7002,
    "distance": 1816
  },
  {
    "id": "here:pds:place:704jx7ps-c889952128190f3b2027edbcd8680a7b",
    "name": "Nhà Trọ Bình Dân, 131 Quốc Lộ 13, Phường 26, Quận Bình Thạnh, Hồ Chí Minh, Việt Nam",
    "lat": 10.81364,
    "lng": 106.71263,
    "distance": 505
  },
  {
    "id": "here:pds:place:704jx7ps-e0db58ff2e4907fc7afd55d51d22d13d",
    "name": "Khách Sạn Lâm Gia, 196 Đường Chu Văn An, Phường 26, Quận Bình Thạnh, Hồ Chí Minh, Việt Nam",
    "lat": 10.81087,
    "lng": 106.70656,
    "distance": 508
  },
  {
    "id": "here:pds:place:704w3gvs-78bb10a53a8708b4b2b6db81c54ad4d8",
    "name": "Khách Sạn Bình Minh, Hẻm 278 Nguyễn Xí, Phường 13, Quận Bình Thạnh, Hồ Chí Minh, Việt Nam",
    "lat": 10.81847,
    "lng": 106.70508,
    "distance": 509
  },
  {
    "id": "here:pds:place:704jx7ps-185e72242d01006fdc2b086f77266c86",
    "name": "Khách Sạn Đa Lộc, Hẻm 334/14 Đường Chu Văn An, Phường 12, Quận Bình Thạnh, Hồ Chí Minh, Việt Nam",
    "lat": 10.81192,
    "lng": 106.70087,
    "distance": 882
  },
  {
    "id": "here:pds:place:704w3gvk-9ec20ec29d7c9773720832b390af524d",
    "name": "Cali Hotel Apartment, Hẻm 59 Đinh Bộ Lĩnh, Phường 26, Quận Bình Thạnh, Hồ Chí Minh, Việt Nam",
    "lat": 10.80676,
    "lng": 106.70933,
    "distance": 937
  },
  {
    "id": "here:pds:place:704w3gvs-512091fcbe1248fb9ac189f7fc319c85",
    "name": "co.op mart-Chu Văn An, 70000 Đường Chu Văn An, Phường 12, Quận Bình Thạnh, Hồ Chí Minh, Việt Nam",
    "lat": 10.81076,
    "lng": 106.70321,
    "distance": 734
  },
  {
    "id": "here:pds:place:704w3gvk-01a006af355cda1638083233ca196928",
    "name": "Nước Mía Phát Đạt Chanh Muối, 22C Đường Ngô Đức Kế, Phường 12, Quận Bình Thạnh, Hồ Chí Minh, Việt Nam",
    "lat": 10.80857,
    "lng": 106.69866,
    "distance": 1277
  },
  {
    "id": "here:pds:place:704w3gvs-512a91b1242841d69ce669d77be750d4",
    "name": "Uncle Bills, 240-242 Phạm Văn Đồng, Phường Hiệp Bình Chánh, Thủ Đức, Hồ Chí Minh, Việt Nam",
    "lat": 10.82747,
    "lng": 106.7217,
    "distance": 2010
  },
  {
    "id": "here:pds:place:704w3gvk-1a3a0be6af5f8d1815e10598ef3fce23",
    "name": "Komonoya, 561 Đường Điện Biên Phủ, Phường 25, Quận Bình Thạnh, Hồ Chí Minh, Việt Nam",
    "lat": 10.79968,
    "lng": 106.71838,
    "distance": 2042
  },
  {
    "id": "here:pds:place:704w3gv7-2a574fb5797b00c8f1a8008dde0ae48d",
    "name": "Cavani, Đường Vạn Kiếp, Phường 3, Quận Bình Thạnh, Hồ Chí Minh, Việt Nam",
    "lat": 10.80025,
    "lng": 106.69376,
    "distance": 2290
  },
  {
    "id": "here:pds:place:704w3gvm-d18a1267f9464e3bb89166afe2baaa41",
    "name": "Hotel Tvi3, Hẻm 19 Trần Bình Trọng, Phường 5, Quận Bình Thạnh, Hồ Chí Minh, Việt Nam",
    "lat": 10.81097,
    "lng": 106.68832,
    "distance": 510
  },
  {
    "id": "here:pds:place:704w3gv6-d8d797c78a6e4dcd807a893f33297249",
    "name": "Hotel Hoa Tràng An, Hẻm 18 Thích Quảng Đức, Phường 5, Quận Phú Nhuận, Hồ Chí Minh, Việt Nam",
    "lat": 10.80493,
    "lng": 106.68464,
    "distance": 519
  },
  {
    "id": "here:pds:place:704w3gve-6cea725ba471467f98b123e0fd6a2266",
    "name": "Thai Dat Hotel, Hẻm 750A Nguyễn Kiệm, Phường 4, Quận Phú Nhuận, Hồ Chí Minh, Việt Nam",
    "lat": 10.81052,
    "lng": 106.6789,
    "distance": 555
  },
  {
    "id": "here:pds:place:704jx7ps-e6c86966d8940664b681512fbd3cd4ce",
    "name": "Khách Sạn La Quang, Hẻm 12 Đào Duy Anh, Phường 9, Quận Phú Nhuận, Hồ Chí Minh, Việt Nam",
    "lat": 10.8061,
    "lng": 106.67789,
    "distance": 758
  },
  {
    "id": "here:pds:place:704jx7ps-196b2ebae7ea0f395f2b5ec8d628c00d",
    "name": "Khách Sạn Cát Vàng, 113 Đường Phạm Văn Đồng, Phường 3, Quận Gò Vấp, Hồ Chí Minh, Việt Nam",
    "lat": 10.81643,
    "lng": 106.68324,
    "distance": 769
  },
  {
    "id": "here:pds:place:704jx7ps-394c04062072072e16efc3243c7bba44",
    "name": "co.op mart-Nguyễn Kiệm, Đường Nguyễn Kiệm, Phường 9, Quận Phú Nhuận, Hồ Chí Minh, Việt Nam",
    "lat": 10.80872,
    "lng": 106.67824,
    "distance": 623
  },
  {
    "id": "here:pds:place:704w3gv7-a233222639ea43e28fee9122e9e6fdd3",
    "name": "Big C Vietnam Head office, 163 Đường Phan Đăng Lưu, Phường 3, Quận Phú Nhuận, Hồ Chí Minh, Việt Nam",
    "lat": 10.80089,
    "lng": 106.68224,
    "distance": 978
  },
  {
    "id": "here:pds:place:704w3gv7-8dcc87bf46427fe33ab01589dab2ac7b",
    "name": "co.op mart-Rạch Miễu, Đường Hoa Sứ, Phường 7, Quận Phú Nhuận, Hồ Chí Minh, Việt Nam",
    "lat": 10.79882,
    "lng": 106.68884,
    "distance": 1309
  },
  {
    "id": "here:pds:place:704w3gv7-2a574fb5797b00c8f1a8008dde0ae48d",
    "name": "Cavani, Đường Vạn Kiếp, Phường 3, Quận Bình Thạnh, Hồ Chí Minh, Việt Nam",
    "lat": 10.80025,
    "lng": 106.69376,
    "distance": 1494
  },
  {
    "id": "here:pds:place:704w3gv7-56dbcb650a614107838c7822bbbe6289",
    "name": "Cửa Hàng Tạp Hóa 114, Hẻm 62/2 Đường Nguyễn Đình Chính, Phường 15, Quận Phú Nhuận, Hồ Chí Minh, Việt Nam",
    "lat": 10.79643,
    "lng": 106.67949,
    "distance": 1535
  },
  {
    "id": "here:pds:place:704jx7ps-8bfeef91bc800aa386f3da7150e72c52",
    "name": "Khách Sạn Xinh, Đường Số 1, Phường 3, Quận Bình Thạnh, Hồ Chí Minh, Việt Nam",
    "lat": 10.79652,
    "lng": 106.69257,
    "distance": 501
  },
  {
    "id": "here:pds:place:704jx7ps-af3c188f1f1a04b9e7b650ad8e19b903",
    "name": "Khách Sạn Đakao BTSC, 26 Đường Nguyễn Văn Thủ, Phường Đa Kao, Quận 1, Hồ Chí Minh, Việt Nam",
    "lat": 10.79105,
    "lng": 106.69989,
    "distance": 507
  },
  {
    "id": "here:pds:place:704jx7ps-83f846ed0f1000fdfc3940742a0dbd6e",
    "name": "Du Xuân, 3 Đường Trần Khắc Chân, Phường Tân Định, Quận 1, Hồ Chí Minh, Việt Nam",
    "lat": 10.79214,
    "lng": 106.69133,
    "distance": 529
  },
  {
    "id": "here:pds:place:704jx7ps-2121f4ca326d0e4e9145238c1ac8fd10",
    "name": "Khách Sạn An Vui, Hẻm 57 Đường Điện Biên Phủ, Phường 15, Quận Bình Thạnh, Hồ Chí Minh, Việt Nam",
    "lat": 10.79569,
    "lng": 106.70107,
    "distance": 608
  },
  {
    "id": "here:pds:place:704w3gv7-04dc9e879bc5ec7c09a42df7518d712b",
    "name": "Aqua House, Đường Phó Đức Chính, Phường 1, Quận Bình Thạnh, Hồ Chí Minh, Việt Nam",
    "lat": 10.79942,
    "lng": 106.69717,
    "distance": 671
  },
  {
    "id": "here:pds:place:704xjxn4-138f54cb950c0bcf3ef6dd13f730436e",
    "name": "Lami Lami, 50BIS Đường Nguyễn Bỉnh Khiêm, Phường Đa Kao, Quận 1, Hồ Chí Minh, Việt Nam",
    "lat": 10.79179,
    "lng": 106.7002,
    "distance": 500
  },
  {
    "id": "here:pds:place:704w3gv7-2a574fb5797b00c8f1a8008dde0ae48d",
    "name": "Cavani, Đường Vạn Kiếp, Phường 3, Quận Bình Thạnh, Hồ Chí Minh, Việt Nam",
    "lat": 10.80025,
    "lng": 106.69376,
    "distance": 788
  },
  {
    "id": "here:pds:place:704w3gv7-8dcc87bf46427fe33ab01589dab2ac7b",
    "name": "co.op mart-Rạch Miễu, Đường Hoa Sứ, Phường 7, Quận Phú Nhuận, Hồ Chí Minh, Việt Nam",
    "lat": 10.79882,
    "lng": 106.68884,
    "distance": 978
  },
  {
    "id": "here:pds:place:704w3gvk-4cd6f2e60c09a150fef9e35d2c2db35b",
    "name": "Mini, 110 Đường Phan Văn Hân, Phường 17, Quận Bình Thạnh, Hồ Chí Minh, Việt Nam",
    "lat": 10.79383,
    "lng": 106.70634,
    "distance": 1133
  },
  {
    "id": "here:pds:place:704w3gv7-66dd3289ac3d4d2d863488e475c80486",
    "name": "co.op mart-Nguyễn Đình Chiểu, Phường Võ Thị Sáu, Quận 3, Hồ Chí Minh, Việt Nam",
    "lat": 10.78157,
    "lng": 106.69279,
    "distance": 1371
  },
  {
    "id": "here:pds:place:704jx7ps-2121f4ca326d0e4e9145238c1ac8fd10",
    "name": "Khách Sạn An Vui, Hẻm 57 Đường Điện Biên Phủ, Phường 15, Quận Bình Thạnh, Hồ Chí Minh, Việt Nam",
    "lat": 10.79569,
    "lng": 106.70107,
    "distance": 514
  },
  {
    "id": "here:pds:place:704w3gvk-91722bbe87c79f709dfdda283643fd0b",
    "name": "Terracotta Villa Saigon, Hẻm 298 Điện Biên Phủ, Phường 17, Quận Bình Thạnh, Hồ Chí Minh, Việt Nam",
    "lat": 10.79904,
    "lng": 106.70775,
    "distance": 560
  },
  {
    "id": "here:pds:place:704aabd1-4dd9e4673e4d0bb246f48d45db6763bd",
    "name": "Queen Pearl Office Serviced Apartment, 1 Đường Phạm Viết Chánh, Phường 19, Quận Bình Thạnh, Hồ Chí Minh, Việt Nam",
    "lat": 10.79036,
    "lng": 106.70877,
    "distance": 572
  },
  {
    "id": "here:pds:place:704w3gvk-5c855d24cd124c72a27a993c1a12a4b9",
    "name": "Somerset Thành Phô Hô Chí Minh, 8A Đường Nguyễn Bỉnh Khiêm, Phường Đa Kao, Quận 1, Hồ Chí Minh, Việt Nam",
    "lat": 10.78986,
    "lng": 106.70314,
    "distance": 578
  },
  {
    "id": "here:pds:place:70477bdf-158abae4e150dbf76ac4c87fd1e2ffd9",
    "name": "Lavie Homestay, 36 Đường Điện Biên Phủ, Phường Đa Kao, Quận 1, Hồ Chí Minh, Việt Nam",
    "lat": 10.79147,
    "lng": 106.69819,
    "distance": 876
  },
  {
    "id": "here:pds:place:704xjxn4-138f54cb950c0bcf3ef6dd13f730436e",
    "name": "Lami Lami, 50BIS Đường Nguyễn Bỉnh Khiêm, Phường Đa Kao, Quận 1, Hồ Chí Minh, Việt Nam",
    "lat": 10.79179,
    "lng": 106.7002,
    "distance": 661
  },
  {
    "id": "here:pds:place:704w3gvk-c30d92811fedcee8a061a34991e2a237",
    "name": "Cửa Hàng Tạp Hóa Anh Cảnh, 37 Đường Ngô Tất Tố, Phường 22, Quận Bình Thạnh, Hồ Chí Minh, Việt Nam",
    "lat": 10.79129,
    "lng": 106.71419,
    "distance": 1001
  },
  {
    "id": "here:pds:place:704w3gv7-2a574fb5797b00c8f1a8008dde0ae48d",
    "name": "Cavani, Đường Vạn Kiếp, Phường 3, Quận Bình Thạnh, Hồ Chí Minh, Việt Nam",
    "lat": 10.80025,
    "lng": 106.69376,
    "distance": 1446
  },
  {
    "id": "here:pds:place:704w3gv7-988d3557671d45929b1625250088fa5c",
    "name": "Thành Thúy, 143 Đường Trần Quang Khải, Phường Tân Định, Quận 1, Hồ Chí Minh, Việt Nam",
    "lat": 10.79189,
    "lng": 106.69203,
    "distance": 1511
  },
  {
    "id": "here:pds:place:704w3gvk-1a3a0be6af5f8d1815e10598ef3fce23",
    "name": "Komonoya, 561 Đường Điện Biên Phủ, Phường 25, Quận Bình Thạnh, Hồ Chí Minh, Việt Nam",
    "lat": 10.79968,
    "lng": 106.71838,
    "distance": 1511
  }
]