[
  {
    "id": "here:pds:place:704w3gv6-618598ff519f0451d66721c5d5ec3062",
    "name": "Điểm Dừng Xe Buýt, Đường Trường Chinh, Phường 12, Quận Tân Bình, Hồ Chí Minh, Việt Nam",
    "lat": 10.7965,
    "lng": 106.6464,
    "distance": 663
  },
  {
    "id": "here:pds:place:704w3gv6-37997f78bc5ca3c44d2fe92852f59957",
    "name": "Điểm Dừng Xe Buýt, Đường Bàu Cát, Phường 14, Quận Tân Bình, Hồ Chí Minh, Việt Nam",
    "lat": 10.79312,
    "lng": 106.64113,
    "distance": 1171
  },
  {
    "id": "here:pds:place:704w3gv6-b6d4da5baae2f7dd13ebbc67b8e38ef1",
    "name": "Trạm Dừng Xe Buýt, Đường Âu Cơ, Phường Tân Thành, Quận Tân Phú, Hồ Chí Minh, Việt Nam",
    "lat": 10.78941,
    "lng": 106.64031,
    "distance": 1351
  },
  {
    "id": "here:pds:place:704w3gv6-235e02cd37767cd99d68bb1a29b8d65e",
    "name": "Điểm Dừng Xe Buýt, Đường Âu Cơ, Phường 14, Quận Tân Bình, Hồ Chí Minh, Việt Nam",
    "lat": 10.79599,
    "lng": 106.6383,
    "distance": 1497
  },
  {
    "id": "here:pds:place:704w3gv6-f97002928cf63240d64ed42f68050c52",
    "name": "Điểm Dừng Xe Buýt, Đường Âu Cơ, Phường 10, Quận Tân Bình, Hồ Chí Minh, Việt Nam",
    "lat": 10.78263,
    "lng": 106.64286,
    "distance": 1585
  },
  {
    "id": "here:pds:place:704w3gv6-f5158a49562a71e9e246e504b191960c",
    "name": "Trạm Xe Buýt, Phường 13, Quận Tân Bình, Hồ Chí Minh, Việt Nam",
    "lat": 10.80242,
    "lng": 106.6401,
    "distance": 1598
  },
  {
    "id": "here:pds:place:704w3gve-7b512c1eb15d4c0dada4d0b096a500a2",
    "name": "Thanh Thúc, Đường Quang Trung, Phường 10, Quận Gò Vấp, Hồ Chí Minh, Việt Nam",
    "lat": 10.83439,
    "lng": 106.66465,
    "distance": 2056
  },
  {
    "id": "here:pds:place:704w3gve-70ef4c7228e01080901eee805388e338",
    "name": "Điểm Dừng Xe Buýt, Đường Thống Nhất, Phường 11, Quận Gò Vấp, Hồ Chí Minh, Việt Nam",
    "lat": 10.83634,
    "lng": 106.66472,
    "distance": 2273
  },
  {
    "id": "here:pds:place:704w3gvk-dadb192e8a6b4ddfa403af83519bf393",
    "name": "Điểm Dừng Xe Buýt, 296 Đường Điện Biên Phủ, Phường 22, Quận Bình Thạnh, Hồ Chí Minh, Việt Nam",
    "lat": 10.79844,
    "lng": 106.71934,
    "distance": 920
  },
  {
    "id": "here:pds:place:704jx7ps-edce3ee4d04a0f411b04d2d734d48b64",
    "name": "Trạm Xe Buýt, Đường Điện Biên Phủ, Phường Võ Thị Sáu, Quận 3, Hồ Chí Minh, Việt Nam",
    "lat": 10.77706,
    "lng": 106.68401,
    "distance": 669
  },
  {
    "id": "here:pds:place:704w3gv7-d4bb08f4f042a53db64758512c294f8c",
    "name": "Điểm Dừng Xe Buýt, Đường Nguyễn Đình Chiểu, Phường 5, Quận 3, Hồ Chí Minh, Việt Nam",
    "lat": 10.7746,
    "lng": 106.68638,
    "distance": 769
  },
  {
    "id": "here:pds:place:704w3gv7-5ad0a90e31e5acbffb952ac7ec43877c",
    "name": "Nhà Chờ Xe Bus, Đường 3 Tháng 2, Phường 12, Quận 10, Hồ Chí Minh, Việt Nam",
    "lat": 10.7762,
    "lng": 106.68053,
    "distance": 1029
  },
  {
    "id": "here:pds:place:704jx7ps-86bb914642810786cf77cadd3e3d6b92",
    "name": "Trạm Xe Buýt, 69 Đường Lý Tự Trọng, Phường Bến Thành, Quận 1, Hồ Chí Minh, Việt Nam",
    "lat": 10.77493,
    "lng": 106.69845,
    "distance": 1296
  },
  {
    "id": "here:pds:place:704w3gvk-067bf9903597453e8023d46cfd1432bd",
    "name": "Điểm Dừng Xe Buýt-Trạm Lý Tự Trọng, Đường Pasteur, Phường Bến Nghé, Quận 1, Hồ Chí Minh, Việt Nam",
    "lat": 10.77684,
    "lng": 106.70002,
    "distance": 1354
  },
  {
    "id": "here:pds:place:704w3gvs-73cfec54a83caaa7c6ec568c06e61f3b",
    "name": "Trạm Dừng Xe Buýt, Quốc Lộ 13, Phường Hiệp Bình Chánh, Thủ Đức, Hồ Chí Minh, Việt Nam",
    "lat": 10.83288,
    "lng": 106.71391,
    "distance": 784
  },
  {
    "id": "here:pds:place:704w3gvs-029450e46f946ef74f376cc4a672e36f",
    "name": "Trạm Xe Bus, Quốc Lộ 13, Phường Hiệp Bình Phước, Thủ Đức, Hồ Chí Minh, Việt Nam",
    "lat": 10.83585,
    "lng": 106.71371,
    "distance": 1114
  },
  {
    "id": "here:pds:place:704w3gvs-9131816dfdb9ae07b1a46338fbb2a590",
    "name": "Trạm Xe Bus, Quốc Lộ 13, Phường Hiệp Bình Phước, Thủ Đức, Hồ Chí Minh, Việt Nam",
    "lat": 10.83874,
    "lng": 106.71485,
    "distance": 1427
  },
  {
    "id": "here:pds:place:704w3gvs-28b75214af657c14257b272ba6b3b736",
    "name": "Điểm Dừng Xe Buýt, Quốc Lộ 13, Phường Hiệp Bình Phước, Thủ Đức, Hồ Chí Minh, Việt Nam",
    "lat": 10.84442,
    "lng": 106.71806,
    "distance": 2085
  },
  {
    "id": "here:pds:place:704w3gve-ff1b1519702ec3a5a232f13e04794048",
    "name": "Điểm Dừng Xe Buýt, 4 Đường Nguyễn Văn Nghi, Phường 5, Quận Gò Vấp, Hồ Chí Minh, Việt Nam",
    "lat": 10.82281,
    "lng": 106.68832,
    "distance": 1384
  },
  {
    "id": "here:pds:place:704jx7ps-616e9fc8592f0cbc0427c394f20acbf7",
    "name": "Bãi Đậu Xe Buýt Công Ty Xe Khách Sài Gòn, 1 Hẻm 64 Đường Huỳnh Lan Khanh, Phường 2, Quận Tân Bình, Hồ Chí Minh, Việt Nam",
    "lat": 10.80478,
    "lng": 106.66737,
    "distance": 1537
  },
  {
    "id": "here:pds:place:704w3gvk-cedace871132bc329de9643b4f10b946",
    "name": "Bến Xe Buýt, Đường Tôn Đức Thắng, Phường Bến Nghé, Quận 1, Hồ Chí Minh, Việt Nam",
    "lat": 10.78173,
    "lng": 106.7073,
    "distance": 1427
  },
  {
    "id": "here:pds:place:704jx7ps-e25920106b8e0d291f28b332f4890636",
    "name": "Khách Sạn Hạnh Trang, 113-115 Đường Xuân Hồng, Phường 12, Quận Tân Bình, Hồ Chí Minh, Việt Nam",
    "lat": 10.79541,
    "lng": 106.65345,
    "distance": 249
  },
  {
    "id": "here:pds:place:704xjxn4-d174805e11990192e4d4f9fb0a971371",
    "name": "Khách Sạn Thái Bình, Đường Xuân Diệu, Phường 4, Quận Tân Bình, Hồ Chí Minh, Việt Nam",
    "lat": 10.7967,
    "lng": 106.65507,
    "distance": 477
  },
  {
    "id": "here:pds:place:704jx7ps-de0e1890fa000650faf90df72a5b1d29",
    "name": "Khách Sạn Hùng Anh, 35 Đường Thép Mới, Phường 12, Quận Tân Bình, Hồ Chí Minh, Việt Nam",
    "lat": 10.79668,
    "lng": 106.64826,
    "distance": 502
  },
  {
    "id": "here:pds:place:704w3gv6-6509a0ef63284325a01fd34281af65c3",
    "name": "Q't Home, Hẻm 108 Trần Mai Ninh, Phường 12, Quận Tân Bình, Hồ Chí Minh, Việt Nam",
    "lat": 10.79216,
    "lng": 106.64704,
    "distance": 555
  },
  {
    "id": "here:pds:place:704w3gv6-07448d72a2964a05a0bb96fa225c641e",
    "name": "Khách Sạn Sao Đêm, 1262 Đường Lạc Long Quân, Phường 8, Quận Tân Bình, Hồ Chí Minh, Việt Nam",
    "lat": 10.78848,
    "lng": 106.65194,
    "distance": 595
  },
  {
    "id": "here:pds:place:704w3gv6-6f9a4dec7eba4c669893a69f78b7ed26",
    "name": "Tinh Khoi Hotel, Hẻm 34 Đường Lê Lai, Phường 12, Quận Tân Bình, Hồ Chí Minh, Việt Nam",
    "lat": 10.79466,
    "lng": 106.64595,
    "distance": 649
  },
  {
    "id": "here:pds:place:704w3gve-2630a43c1b728b6668af58cd9d4ffd88",
    "name": "MTV Mi Linh, Đường Bạch Đằng, Phường 2, Quận Tân Bình, Hồ Chí Minh, Việt Nam",
    "lat": 10.81363,
    "lng": 106.66567,
    "distance": 305
  },
  {
    "id": "here:pds:place:704w3gve-c824242cb434771447e9d3f1be16cde1",
    "name": "New Space Hotel, 51 Đường Lam Sơn, Phường 2, Quận Tân Bình, Hồ Chí Minh, Việt Nam",
    "lat": 10.81142,
    "lng": 106.66694,
    "distance": 587
  },
  {
    "id": "here:pds:place:704w3gve-4415cc33b95b1add386caa56eec7cac6",
    "name": "Sao Mai Hotel, B100 Đường Bạch Đằng, Phường 2, Quận Tân Bình, Hồ Chí Minh, Việt Nam",
    "lat": 10.81554,
    "lng": 106.66964,
    "distance": 605
  },
  {
    "id": "here:pds:place:704w3gve-5de1a2d4a0b24b2ea50ecf9d98a5e4fc",
    "name": "Nhà Trọ, Hẻm A75/6E Bạch Đằng, Phường 2, Quận Tân Bình, Hồ Chí Minh, Việt Nam",
    "lat": 10.81633,
    "lng": 106.67201,
    "distance": 864
  },
  {
    "id": "here:pds:place:704jx7ps-2915aeb2a006015b867c429d29d974a0",
    "name": "Căn Hộ Dịch Vụ Cao Cấp, Hẻm 69/1 Đường Nguyễn Gia Trí, Phường 25, Quận Bình Thạnh, Hồ Chí Minh, Việt Nam",
    "lat": 10.80289,
    "lng": 106.71433,
    "distance": 355
  },
  {
    "id": "here:pds:place:704jx7ps-1720f91e3e5803d516f6367449325799",
    "name": "Mỹ Xuân, 11 Đường Đinh Bộ Lĩnh, Phường 24, Quận Bình Thạnh, Hồ Chí Minh, Việt Nam",
    "lat": 10.80394,
    "lng": 106.70934,
    "distance": 368
  },
  {
    "id": "here:pds:place:704w3gvk-750e32b5f61ad063bc5e6e89557fce9b",
    "name": "Là Nhà Hotel, Hẻm 157 Nguyễn Gia Trí, Phường 25, Quận Bình Thạnh, Hồ Chí Minh, Việt Nam",
    "lat": 10.80539,
    "lng": 106.71375,
    "distance": 511
  },
  {
    "id": "here:pds:place:704w3gvk-e31488719d693195410ae6caf4259575",
    "name": "Khách Sạn Trang Thùy, 150 Đường Xô Viết Nghệ Tĩnh, Phường 17, Quận Bình Thạnh, Hồ Chí Minh, Việt Nam",
    "lat": 10.79682,
    "lng": 106.71055,
    "distance": 517
  },
  {
    "id": "here:pds:place:704jx7ps-4c8ef96291c40eadcd7732527e54c52e",
    "name": "Hotel Hoa Ban, Hẻm 36 Đường D2, Phường 25, Quận Bình Thạnh, Hồ Chí Minh, Việt Nam",
    "lat": 10.80225,
    "lng": 106.71645,
    "distance": 552
  },
  {
    "id": "here:pds:place:704xjxn4-fb4b94776843094013900714fdb5e65e",
    "name": "Cho Thuê Phòng Trọ, Đường Võ Oanh, Phường 25, Quận Bình Thạnh, Hồ Chí Minh, Việt Nam",
    "lat": 10.80425,
    "lng": 106.71565,
    "distance": 557
  },
  {
    "id": "here:pds:place:704w3gvk-732e863070874081808ce2a142b7d2fe",
    "name": "Nhà Trọ, Hẻm 46/10 Đường Nguyễn Cửu Vân, Phường 17, Quận Bình Thạnh, Hồ Chí Minh, Việt Nam",
    "lat": 10.79668,
    "lng": 106.70766,
    "distance": 668
  },
  {
    "id": "here:pds:place:704w3gv7-ae9fd09c68349221b49b3f573079c9bd",
    "name": "M Village Võ Thị Sáu, Hẻm 232 Võ Thị Sáu, Phường Võ Thị Sáu, Quận 3, Hồ Chí Minh, Việt Nam",
    "lat": 10.78198,
    "lng": 106.6858,
    "distance": 302
  },
  {
    "id": "here:pds:place:704w3gv7-6c705bac807f475f954ca8a0aec1bcd5",
    "name": "Nhà Khách Thanh Niên, Hẻm 2 Đường Nguyễn Gia Thiều, Phường Võ Thị Sáu, Quận 3, Hồ Chí Minh, Việt Nam",
    "lat": 10.77876,
    "lng": 106.68986,
    "distance": 313
  },
  {
    "id": "here:pds:place:704w3gv7-cc5db3dd2a707ee695b4a3c3df6bf3aa",
    "name": "Mai House, Hẻm 6 Đường Ngô Thời Nhiệm, Phường Võ Thị Sáu, Quận 3, Hồ Chí Minh, Việt Nam",
    "lat": 10.78206,
    "lng": 106.69163,
    "distance": 360
  },
  {
    "id": "here:pds:place:704w3gv7-7fb234817a7846ca964d3c30fce5e488",
    "name": "Spice Việt, Hẻm 238 Pasteur, Phường Võ Thị Sáu, Quận 3, Hồ Chí Minh, Việt Nam",
    "lat": 10.78478,
    "lng": 106.69083,
    "distance": 475
  },
  {
    "id": "here:pds:place:704jx7ps-32842186994a00cad9a9d54e9f2f21a4",
    "name": "Hồng Hà Hotel, Hẻm 62 Đường Nguyễn Thông, Phường Võ Thị Sáu, Quận 3, Hồ Chí Minh, Việt Nam",
    "lat": 10.77688,
    "lng": 106.68595,
    "distance": 554
  },
  {
    "id": "here:pds:place:704jx7ps-96feac98a6690cdcbdb14630a516c580",
    "name": "Ruby Star Hotel, 43 Đường Trương Định, Phường Võ Thị Sáu, Quận 3, Hồ Chí Minh, Việt Nam",
    "lat": 10.77669,
    "lng": 106.69085,
    "distance": 567
  },
  {
    "id": "here:pds:place:704w3gv7-e2696ded7b2f4847be4461de2be6747d",
    "name": "Victory Hotel, 14 Đường Võ Văn Tần, Phường Võ Thị Sáu, Quận 3, Hồ Chí Minh, Việt Nam",
    "lat": 10.78057,
    "lng": 106.69369,
    "distance": 577
  },
  {
    "id": "here:pds:place:704b8d5b-00a6225fa1de3021adfc4f247980ef4d",
    "name": "Nhà Khách T78, 145 Đường Lý Chính Thắng, Phường Võ Thị Sáu, Quận 3, Hồ Chí Minh, Việt Nam",
    "lat": 10.78497,
    "lng": 106.68481,
    "distance": 577
  },
  {
    "id": "here:pds:place:704jx7ps-2c493337874c09e763768635109fdacb",
    "name": "Khách Sạn Su Su Anh, 72 Đường Số 17, Phường Hiệp Bình Chánh, Thủ Đức, Hồ Chí Minh, Việt Nam",
    "lat": 10.82492,
    "lng": 106.71745,
    "distance": 290
  },
  {
    "id": "here:pds:place:704w3gvs-db9363d90ce6907879ae9ec4f5e2caf1",
    "name": "Hotel Thiên Phú, Đường Số 18, Phường Hiệp Bình Chánh, Thủ Đức, Hồ Chí Minh, Việt Nam",
    "lat": 10.82534,
    "lng": 106.71926,
    "distance": 471
  },
  {
    "id": "here:pds:place:704w3gvs-92c92a05a5ad17f0efe91daaa3a36ed1",
    "name": "Khách sạn Winstion Hotel, Hẻm 28/45 Đường Thanh Đa, Phường 27, Quận Bình Thạnh, Hồ Chí Minh, Việt Nam",
    "lat": 10.81893,
    "lng": 106.71893,
    "distance": 887
  },
  {
    "id": "here:pds:place:704w3gvs-a56abe0e7ea51976daa1a6becdcdfaab",
    "name": "HOTEL THU HÀ, Hẻm 78 Bình Lợi, Phường 13, Quận Bình Thạnh, Hồ Chí Minh, Việt Nam",
    "lat": 10.82936,
    "lng": 106.70631,
    "distance": 1023
  },
  {
    "id": "here:pds:place:704xjxn4-34aecfb7449304f96c56f1232e0789b1",
    "name": "Ngọc Xanh-Emerald, Hẻm 209 Quốc Lộ 13, Phường 26, Quận Bình Thạnh, Hồ Chí Minh, Việt Nam",
    "lat": 10.81638,
    "lng": 106.7129,
    "distance": 1084
  },
  {
    "id": "here:pds:place:704w3gvs-580183aa68253c6a83ecc8e1660cb670",
    "name": "Nhà Nghỉ-Khách Sạn Công Đoàn Thanh Đa, Đường Số 3, Phường 27, Quận Bình Thạnh, Hồ Chí Minh, Việt Nam",
    "lat": 10.8171,
    "lng": 106.71927,
    "distance": 1085
  },
  {
    "id": "here:pds:place:704w3gvs-d4749004c17e45199b9560e90f3503ac",
    "name": "ABC Hotel, 36 Đường 47, Phường Hiệp Bình Chánh, Thủ Đức, Hồ Chí Minh, Việt Nam",
    "lat": 10.83204,
    "lng": 106.72281,
    "distance": 1093
  },
  {
    "id": "here:pds:place:704w3gvs-9c4703ac6dd84ded97d8b1b0c1bbd8e4",
    "name": "Tổng Công Ty Cổ Phần Bia-Rượu-Nước Giải Khát Sài Gòn-Nhà Phân Phối Doanh Nghiệp Tư Nhân-Thương Mại-., Hẻm 133 Bình Quới, Phường 27, Quận Bình Thạnh, Hồ Chí Minh, Việt Nam",
    "lat": 10.81934,
    "lng": 106.72293,
    "distance": 1134
  },
  {
    "id": "here:pds:place:704xjxn4-9ae99567b0150cea64fcbaf6b6ac0cd0",
    "name": "Quyền, 83 Đường Nguyễn Kiệm, Phường 3, Quận Gò Vấp, Hồ Chí Minh, Việt Nam",
    "lat": 10.81713,
    "lng": 106.67872,
    "distance": 305
  },
  {
    "id": "here:pds:place:704w3gve-4e67afda475d469dbf2d43f8772edd12",
    "name": "Hotel Gia Khang, 2 Đường Bạch Đằng, Phường 3, Quận Gò Vấp, Hồ Chí Minh, Việt Nam",
    "lat": 10.81582,
    "lng": 106.67482,
    "distance": 481
  },
  {
    "id": "here:pds:place:704w3gve-0ec31fcb52e84a99a781fcd8305362f3",
    "name": "Khach San Kim do (Royal City Hotel), 786 Đường Nguyễn Kiệm, Phường 3, Quận Gò Vấp, Hồ Chí Minh, Việt Nam",
    "lat": 10.81989,
    "lng": 106.67886,
    "distance": 611
  },
  {
    "id": "here:pds:place:704xjxn4-a4e8e80d463d01eac83312e65e516484",
    "name": "Khách Sạn An Hằng, 86 Hẻm 73 Hoàng Văn Thụ, Phường 9, Quận Phú Nhuận, Hồ Chí Minh, Việt Nam",
    "lat": 10.7994,
    "lng": 106.67783,
    "distance": 265
  },
  {
    "id": "here:pds:place:704aabd1-e86dab8a3d1f023cf38eb3a8da71ac7a",
    "name": "Tigon Hotel, Hẻm 162 Phan Đăng Lưu, Phường 3, Quận Phú Nhuận, Hồ Chí Minh, Việt Nam",
    "lat": 10.80166,
    "lng": 106.68236,
    "distance": 366
  },
  {
    "id": "here:pds:place:704w3gv7-efafadc6c87e85027d0695710c0cd23f",
    "name": "Lan Anh Hotel, Đường Nguyễn Đình Chiểu, Phường 4, Quận Phú Nhuận, Hồ Chí Minh, Việt Nam",
    "lat": 10.80345,
    "lng": 106.67972,
    "distance": 486
  },
  {
    "id": "here:pds:place:704w3gv7-04eb338bbc014bbcbdc2dfb9f15c89f5",
    "name": "The Six Hotel, 31 Đường Hồ Văn Huê, Phường 9, Quận Phú Nhuận, Hồ Chí Minh, Việt Nam",
    "lat": 10.80188,
    "lng": 106.67611,
    "distance": 546
  },
  {
    "id": "here:pds:place:704jx7ps-7e6553b7129d0b10123ba42988cab1b3",
    "name": "Khách Sạn Thạnh Phát, Hẻm 88 Phan Xích Long, Phường 2, Quận Phú Nhuận, Hồ Chí Minh, Việt Nam",
    "lat": 10.79921,
    "lng": 106.68558,
    "distance": 583
  },
  {
    "id": "here:pds:place:704xjxn4-865716e702150fa172ba86baaa014046",
    "name": "Hotel Hải Thanh 1, Đường Vạn Kiếp, Phường 3, Quận Bình Thạnh, Hồ Chí Minh, Việt Nam",
    "lat": 10.80073,
    "lng": 106.69342,
    "distance": 574
  },
  {
    "id": "here:pds:place:704jx7ps-2121f4ca326d0e4e9145238c1ac8fd10",
    "name": "Khách Sạn An Vui, Hẻm 57 Đường Điện Biên Phủ, Phường 15, Quận Bình Thạnh, Hồ Chí Minh, Việt Nam",
    "lat": 10.79569,
    "lng": 106.70107,
    "distance": 682
  },
  {
    "id": "here:pds:place:704jx7ps-981c492c51be04b9bb1ecc7a217980a1",
    "name": "Hoa Phượng Đỏ, Hẻm 74 Đường Trương Quốc Dung, Phường 10, Quận Phú Nhuận, Hồ Chí Minh, Việt Nam",
    "lat": 10.79474,
    "lng": 106.67169,
    "distance": 331
  },
  {
    "id": "here:pds:place:704w3gv7-1ed62de6273a994e5d79cb39a24c92b6",
    "name": "Mái Ngói Hostel, 10K Đường Trần Hữu Trang, Phường 11, Quận Phú Nhuận, Hồ Chí Minh, Việt Nam",
    "lat": 10.79372,
    "lng": 106.67571,
    "distance": 434
  },
  {
    "id": "here:pds:place:704jx7ps-cd2d2161358404bdcda631beac5878fe",
    "name": "Hotel Ánh Dương, 239/67/24 Đường Hoàng Sa, Phường 11, Quận 3, Hồ Chí Minh, Việt Nam",
    "lat": 10.78789,
    "lng": 106.66993,
    "distance": 504
  },
  {
    "id": "here:pds:place:704w3gv7-3684ca672cb34f2a962f9bdbade4a993",
    "name": "Khách Sạn Bóc Lột Người Lao Động, Đường Huỳnh Văn Bánh, Phường 11, Quận Phú Nhuận, Hồ Chí Minh, Việt Nam",
    "lat": 10.79175,
    "lng": 106.67699,
    "distance": 519
  },
  {
    "id": "here:pds:place:704xjxn4-76463b37f99704893cc3d45bf61a5aee",
    "name": "Hoàng Hà Hotel, 57 Đường Trương Quốc Dung, Phường 10, Quận Phú Nhuận, Hồ Chí Minh, Việt Nam",
    "lat": 10.7966,
    "lng": 106.6727,
    "distance": 535
  },
  {
    "id": "here:pds:place:704w3gv7-1bf2163becc64693b15d566bbc170d3c",
    "name": "Home Hotel, 158 Đường Nguyễn Đình Chính, Phường 8, Quận Phú Nhuận, Hồ Chí Minh, Việt Nam",
    "lat": 10.79602,
    "lng": 106.67587,
    "distance": 613
  },
  {
    "id": "here:pds:place:704jx7ps-8875823d043c0a0d9c4dc92dca7a705b",
    "name": "Hoang Sa Hotel, 475 Đường Hai Bà Trưng, Phường Võ Thị Sáu, Quận 3, Hồ Chí Minh, Việt Nam",
    "lat": 10.79188,
    "lng": 106.68664,
    "distance": 527
  },
  {
    "id": "here:pds:place:704jx7ps-99188dbf33d70cbe8eedba8f3ae6d74b",
    "name": "Khách Sạn Nam Hoàng, 284 Đường Lê Văn Sỹ, Phường 14, Quận 3, Hồ Chí Minh, Việt Nam",
    "lat": 10.7869,
    "lng": 106.67976,
    "distance": 571
  },
  {
    "id": "here:pds:place:704w3gv7-3260e72efac9774d2ade0d5646fef7f4",
    "name": "Ramana Hotel Saigon, 323 Hẻm 384 Lê Văn Sỹ, Phường 14, Quận 3, Hồ Chí Minh, Việt Nam",
    "lat": 10.78789,
    "lng": 106.67768,
    "distance": 614
  },
  {
    "id": "here:pds:place:704169d0-9fc5235c2c00c5295809bfad2765cd81",
    "name": "Reddoorz Plus Near Gia Dinh Park, 127 Hẻm 134 Đường Đào Duy Anh, Phường 9, Quận Phú Nhuận, Hồ Chí Minh, Việt Nam",
    "lat": 10.8074,
    "lng": 106.67496,
    "distance": 217
  },
  {
    "id": "here:pds:place:704w3gv6-0d3b674e233d4513b58cf451573b7205",
    "name": "My villa hotel, Hẻm 54 Bạch Đằng, Phường 2, Quận Tân Bình, Hồ Chí Minh, Việt Nam",
    "lat": 10.81308,
    "lng": 106.67183,
    "distance": 569
  },
  {
    "id": "here:pds:place:704jx7ps-22b28e2cfc420f3e571f3de87737fbcd",
    "name": "Khách Sạn Hoàng Anh Như, 73 Đường Hồ Văn Huê, Phường 9, Quận Phú Nhuận, Hồ Chí Minh, Việt Nam",
    "lat": 10.80365,
    "lng": 106.6771,
    "distance": 661
  },
  {
    "id": "here:pds:place:704w3gve-0d9361dcac3c510973a48fb428f41c11",
    "name": "Silk Hotel, 43 Đường Hồng Hà, Phường 2, Quận Tân Bình, Hồ Chí Minh, Việt Nam",
    "lat": 10.81382,
    "lng": 106.67002,
    "distance": 718
  },
  {
    "id": "here:pds:place:704jx7ps-9bb801de97420e7d9393a40d89016001",
    "name": "Khách Sạn Thanh Thảo, 57 Đường Lê Quang Định, Phường 14, Quận Bình Thạnh, Hồ Chí Minh, Việt Nam",
    "lat": 10.80508,
    "lng": 106.69794,
    "distance": 211
  },
  {
    "id": "here:pds:place:704jx7ps-7b8c22fdb7fa0b29423a4b7ab647dffe",
    "name": "Khách Sạn Phú Gia Huy, Đường Lê Quang Định, Phường 14, Quận Bình Thạnh, Hồ Chí Minh, Việt Nam",
    "lat": 10.80765,
    "lng": 106.696,
    "distance": 563
  },
  {
    "id": "here:pds:place:704w3gv7-00a87e081af9b25602cb16227543c7ef",
    "name": "Khách Hàng, 21 Đường Vạn Kiếp, Phường 3, Quận Bình Thạnh, Hồ Chí Minh, Việt Nam",
    "lat": 10.80183,
    "lng": 106.69336,
    "distance": 606
  },
  {
    "id": "here:pds:place:704jx7ps-53d7c3b83b1f0740e1cda031d0f3402e",
    "name": "Khách Sạn Tân Lam Sơn, 112 Đường Nơ Trang Long, Phường 11, Quận Bình Thạnh, Hồ Chí Minh, Việt Nam",
    "lat": 10.80937,
    "lng": 106.69518,
    "distance": 773
  },
  {
    "id": "here:pds:place:704w3gvk-0dab50deb7482d6cdd39a51ccb90a789",
    "name": "Hotel Viking, Hẻm 234/2 Đường Chu Văn An, Phường 12, Quận Bình Thạnh, Hồ Chí Minh, Việt Nam",
    "lat": 10.81009,
    "lng": 106.70382,
    "distance": 258
  },
  {
    "id": "here:pds:place:704aabd1-ea3748b3bfba0ec18ffe92370ccb07c7",
    "name": "Blue Sky Saigon Hotel, Phường 24, Quận Bình Thạnh, Hồ Chí Minh, Việt Nam",
    "lat": 10.80626,
    "lng": 106.70694,
    "distance": 405
  },
  {
    "id": "here:pds:place:704jx7ps-aca2737505e408574ea41f620986147f",
    "name": "Khách Sạn Phương Nhi, Hẻm 287 Chu Văn An, Phường 12, Quận Bình Thạnh, Hồ Chí Minh, Việt Nam",
    "lat": 10.81042,
    "lng": 106.70048,
    "distance": 447
  },
  {
    "id": "here:pds:place:704d6d25-329d5b149231f140031986c86c44f476",
    "name": "Nicole Home, 347 Đường Chu Văn An, Phường 12, Quận Bình Thạnh, Hồ Chí Minh, Việt Nam",
    "lat": 10.81149,
    "lng": 106.6989,
    "distance": 656
  },
  {
    "id": "here:pds:place:704xjxn4-b96847b505670a8467b9363322f804df",
    "name": "Khách Sạn Duy Hưng, 220 Đường Nguyễn Xí, Phường 26, Quận Bình Thạnh, Hồ Chí Minh, Việt Nam",
    "lat": 10.81715,
    "lng": 106.70618,
    "distance": 320
  },
  {
    "id": "here:pds:place:704xjxn4-7a3ab143d46d05d077ba6c48e8cd2f5e",
    "name": "Khách Sạn Bình Minh, Hẻm 54 Nguyễn Xí, Phường 26, Quận Bình Thạnh, Hồ Chí Minh, Việt Nam",
    "lat": 10.81285,
    "lng": 106.71172,
    "distance": 454
  },
  {
    "id": "here:pds:place:704w3gvs-8e1269b0d2a94f44ba6b2a49617d3cd3",
    "name": "Khách Sạn Phương Linh, Hẻm 2/9 Đường Chu Văn An, Phường 12, Quận Bình Thạnh, Hồ Chí Minh, Việt Nam",
    "lat": 10.81014,
    "lng": 106.70485,
    "distance": 667
  },
  {
    "id": "here:pds:place:704w3gvs-72a0eb9e169747162994b835785f8b26",
    "name": "Palago Hotel, Hẻm 625 Xô Viết Nghệ Tĩnh, Phường 26, Quận Bình Thạnh, Hồ Chí Minh, Việt Nam",
    "lat": 10.81148,
    "lng": 106.71362,
    "distance": 712
  },
  {
    "id": "here:pds:place:704w3gvm-d18a1267f9464e3bb89166afe2baaa41",
    "name": "Hotel Tvi3, Hẻm 19 Trần Bình Trọng, Phường 5, Quận Bình Thạnh, Hồ Chí Minh, Việt Nam",
    "lat": 10.81097,
    "lng": 106.68832,
    "distance": 510
  },
  {
    "id": "here:pds:place:704w3gv6-d8d797c78a6e4dcd807a893f33297249",
    "name": "Hotel Hoa Tràng An, Hẻm 18 Thích Quảng Đức, Phường 5, Quận Phú Nhuận, Hồ Chí Minh, Việt Nam",
    "lat": 10.80493,
    "lng": 106.68464,
    "distance": 519
  },
  {
    "id": "here:pds:place:704jx7ps-516a95a02db104a10ba643ad17e424e1",
    "name": "Khách Sạn Minh Phúc, 16 Đường Nguyễn Văn Đậu, Phường 5, Quận Phú Nhuận, Hồ Chí Minh, Việt Nam",
    "lat": 10.80486,
    "lng": 106.68711,
    "distance": 629
  },
  {
    "id": "here:pds:place:704jx7ps-bc42d930ad470f76b95aa83c0bc1a6fc",
    "name": "Khách Sạn Hương Lưu, Hẻm 80 Hoàng Hoa Thám, Phường 7, Quận Bình Thạnh, Hồ Chí Minh, Việt Nam",
    "lat": 10.80779,
    "lng": 106.68988,
    "distance": 684
  },
  {
    "id": "here:pds:place:704w3gve-ed407189eae52614ccd741ad53480558",
    "name": "Khách Sạn Kim Uyên, 466 Đường Lê Quang Định, Phường 11, Quận Bình Thạnh, Hồ Chí Minh, Việt Nam",
    "lat": 10.81349,
    "lng": 106.68992,
    "distance": 793
  },
  {
    "id": "here:pds:place:704cpf7c-eae9967e3905049c4abb747466174b37",
    "name": "Khách Sạn Hoàng Mai, 18A Đường Nguyễn Văn Giai, Phường Đa Kao, Quận 1, Hồ Chí Minh, Việt Nam",
    "lat": 10.79183,
    "lng": 106.69715,
    "distance": 226
  },
  {
    "id": "here:pds:place:704w3gv7-683660415f1240ebb8a89ff0aa416d63",
    "name": "Red Flower, 104 Đường Trần Quang Khải, Phường Tân Định, Quận 1, Hồ Chí Minh, Việt Nam",
    "lat": 10.79234,
    "lng": 106.69326,
    "distance": 323
  },
  {
    "id": "here:pds:place:704jx7ps-618dbcd7fec10f056e43abab8514bfc7",
    "name": "Khách Sạn Nhật Linh 54, 54/58 Đường Nguyễn Bỉnh Khiêm, Phường Đa Kao, Quận 1, Hồ Chí Minh, Việt Nam",
    "lat": 10.79206,
    "lng": 106.69999,
    "distance": 467
  },
  {
    "id": "here:pds:place:704cpf7c-822e6dc182a107bc2633d3c3b1c4fe4e",
    "name": "Khách Sạn Bình An, 28M Đường Số 1, Phường 3, Quận Bình Thạnh, Hồ Chí Minh, Việt Nam",
    "lat": 10.7962,
    "lng": 106.69249,
    "distance": 484
  },
  {
    "id": "here:pds:place:704jx7ps-f5b967a43a6a097efe3108408bfea59f",
    "name": "Khách Sạn Thu Mai, 3 Đường Thạch Thị Thanh, Phường Tân Định, Quận 1, Hồ Chí Minh, Việt Nam",
    "lat": 10.78983,
    "lng": 106.69358,
    "distance": 484
  },
  {
    "id": "here:pds:place:704jx7ps-83f846ed0f1000fdfc3940742a0dbd6e",
    "name": "Du Xuân, 3 Đường Trần Khắc Chân, Phường Tân Định, Quận 1, Hồ Chí Minh, Việt Nam",
    "lat": 10.79214,
    "lng": 106.69133,
    "distance": 529
  },
  {
    "id": "here:pds:place:704xjxn4-a61cebec3bdb0ebd55924cbc3d1a9547",
    "name": "Hoàng Vũ, 896 Hẻm 3 Điện Biên Phủ, Phường 15, Quận Bình Thạnh, Hồ Chí Minh, Việt Nam",
    "lat": 10.79402,
    "lng": 106.70085,
    "distance": 536
  },
  {
    "id": "here:pds:place:704jx7ps-0f85a43f6b2f0f58e24cf84ebb38c877",
    "name": "Khách Sạn Nam Trân, 39 Đường Đinh Công Tráng, Phường Tân Định, Quận 1, Hồ Chí Minh, Việt Nam",
    "lat": 10.78952,
    "lng": 106.69152,
    "distance": 657
  },
  {
    "id": "here:pds:place:704w3gv7-75338a3693d007b2239494727431915d",
    "name": "Khách sạn Ngọc Ánh, 45 Đường Hoa Hồng, Phường 2, Quận Phú Nhuận, Hồ Chí Minh, Việt Nam",
    "lat": 10.79645,
    "lng": 106.69023,
    "distance": 708
  },
  {
    "id": "here:pds:place:704w3gv7-591bf7a15043f0237c47e227a7c1ad2c",
    "name": "Bili Home, 14 Hẻm 36 Đường Trường Sa, Phường 17, Quận Bình Thạnh, Hồ Chí Minh, Việt Nam",
    "lat": 10.79288,
    "lng": 106.70455,
    "distance": 210
  },
  {
    "id": "here:pds:place:704w3gv7-ea855a7cb20b4ea8a9494f5b7957db48",
    "name": "An Vui Hotel Anvuihotel, 45 HẺM 31 Điện Biên Phủ, Phường 15, Quận Bình Thạnh, Hồ Chí Minh, Việt Nam",
    "lat": 10.79483,
    "lng": 106.70156,
    "distance": 444
  },
  {
    "id": "here:pds:place:704w3gvk-b67aa70a942248d8a6861938fc5f3ee0",
    "name": "Mai Apartment, Hẻm 17A Đường Nguyễn Ngọc Phương, Phường 19, Quận Bình Thạnh, Hồ Chí Minh, Việt Nam",
    "lat": 10.79079,
    "lng": 106.7077,
    "distance": 468
  },
  {
    "id": "here:pds:place:704jx7ps-7f6a8c153b300ddddbfc6546b3ab4a81",
    "name": "Khách Sạn Hồng Loan, Hẻm 161 Đường Nguyễn Văn Thủ, Phường Đa Kao, Quận 1, Hồ Chí Minh, Việt Nam",
    "lat": 10.79203,
    "lng": 106.7011,
    "distance": 562
  },
  {
    "id": "here:pds:place:704w3gv6-edcd56385a87956d0c762b720ab55de6",
    "name": "Trái Cây Tươi Ly Lộc, Hẻm 75 Đường Võ Thành Trang, Phường 11, Quận Tân Bình, Hồ Chí Minh, Việt Nam",
    "lat": 10.79192,
    "lng": 106.65116,
    "distance": 225
  },
  {
    "id": "here:pds:place:704w3gv6-569a812528b6e3d81d3164cfe3db16a9",
    "name": "Cửa Hàng Bánh Mì, Đường Hoàng Văn Thụ, Phường 4, Quận Tân Bình, Hồ Chí Minh, Việt Nam",
    "lat": 10.79439,
    "lng": 106.65491,
    "distance": 342
  },
  {
    "id": "here:pds:place:704w3gv6-28d6baaf228dfccc1dbff5f024109038",
    "name": "Te Amo, Hẻm 192 Nguyễn Thái Bình, Phường 12, Quận Tân Bình, Hồ Chí Minh, Việt Nam",
    "lat": 10.79665,
    "lng": 106.65334,
    "distance": 354
  },
  {
    "id": "here:pds:place:704w3gv6-271dcb38b7f4fc45cb718124da676b25",
    "name": "Trà Sữa Hanna, Hẻm 162B Trường Chinh, Phường 12, Quận Tân Bình, Hồ Chí Minh, Việt Nam",
    "lat": 10.79531,
    "lng": 106.64855,
    "distance": 394
  },
  {
    "id": "here:pds:place:704w3gv6-80a3c93b2cc4c1cb4e422a7e7188f439",
    "name": "Celina, Đường Trần Mai Ninh, Phường 12, Quận Tân Bình, Hồ Chí Minh, Việt Nam",
    "lat": 10.7934,
    "lng": 106.64785,
    "distance": 437
  },
  {
    "id": "here:pds:place:704w3gv6-7559630eca55b6c44e17f2eeaa8eec21",
    "name": "Quán 66 Điểm Tâm Sáng, Đường Năm Châu, Phường 11, Quận Tân Bình, Hồ Chí Minh, Việt Nam",
    "lat": 10.78987,
    "lng": 106.65098,
    "distance": 450
  },
  {
    "id": "here:pds:place:704w3gve-a7d3042ffb722d02385da1a75b8c5917",
    "name": "Bún Riêu Nguyễn Cảnh Chân 2, Đường Bạch Đằng, Phường 2, Quận Tân Bình, Hồ Chí Minh, Việt Nam",
    "lat": 10.81559,
    "lng": 106.66859,
    "distance": 491
  },
  {
    "id": "here:pds:place:704w3gve-c71215601c60f400acd2d503984113c8",
    "name": "Cơm Bún Hủ Tiếu Bánh Canh, Đường Lam Sơn, Phường 2, Quận Tân Bình, Hồ Chí Minh, Việt Nam",
    "lat": 10.81239,
    "lng": 106.66702,
    "distance": 504
  },
  {
    "id": "here:pds:place:704w3gv7-7315cb967c0503a737bf4badbeba600d",
    "name": "Gỏi Vịt, Đường Lam Sơn, Phường 2, Quận Tân Bình, Hồ Chí Minh, Việt Nam",
    "lat": 10.81048,
    "lng": 106.66696,
    "distance": 679
  },
  {
    "id": "here:pds:place:704w3gve-6b2897e903a1c0bd680b3d4187810bbb",
    "name": "Lá Tía Tô Thực Dưỡng Sinh, 117 Đường Hồng Hà, Phường 2, Quận Tân Bình, Hồ Chí Minh, Việt Nam",
    "lat": 10.80983,
    "lng": 106.67104,
    "distance": 1015
  },
  {
    "id": "here:pds:place:704w3gvk-0b47830658b94e93b2b677fe88b2939e",
    "name": "Huế Xưa, Hẻm 277 Đường Xô Viết Nghệ Tĩnh, Phường 15, Quận Bình Thạnh, Hồ Chí Minh, Việt Nam",
    "lat": 10.80231,
    "lng": 106.70981,
    "distance": 209
  },
  {
    "id": "here:pds:place:704w3gvk-e2402ac8b76bbdd5ec8750539f0611b3",
    "name": "Giò Chả Tài Linh, Hẻm 294/83 Xô Viết Nghệ Tĩnh, Phường 21, Quận Bình Thạnh, Hồ Chí Minh, Việt Nam",
    "lat": 10.79998,
    "lng": 106.71383,
    "distance": 301
  },
  {
    "id": "here:pds:place:704w3gvk-835c3ae8d12b972726f7753aac4a234b",
    "name": "Ốc Đêm, 220 Đường Xô Viết Nghệ Tĩnh, Phường 21, Quận Bình Thạnh, Hồ Chí Minh, Việt Nam",
    "lat": 10.79843,
    "lng": 106.71281,
    "distance": 359
  },
  {
    "id": "here:pds:place:704w3gvk-af2b7fe8819ee48afcceda06bfd94e05",
    "name": "Quần Áo Nam Quảng Châu, Đường D2, Phường 25, Quận Bình Thạnh, Hồ Chí Minh, Việt Nam",
    "lat": 10.80393,
    "lng": 106.7144,
    "distance": 428
  },
  {
    "id": "here:pds:place:704w3gvk-b171b5c9e3c4ed0393e103e954bab93b",
    "name": "Chuối Nướng Chú Hai, Đường Nguyễn Gia Trí, Phường 25, Quận Bình Thạnh, Hồ Chí Minh, Việt Nam",
    "lat": 10.80255,
    "lng": 106.71558,
    "distance": 467
  },
  {
    "id": "here:pds:place:704w3gvk-d2ec5c6e24103adbbe4be1ea00863d8e",
    "name": "Tiệm Ăn Vặt Cờ Nờ, 441 Đường Điện Biên Phủ, Phường 21, Quận Bình Thạnh, Hồ Chí Minh, Việt Nam",
    "lat": 10.80037,
    "lng": 106.7158,
    "distance": 486
  },
  {
    "id": "here:pds:place:704w3gv7-17b16f0474d1100975c048624d14a45f",
    "name": "Vy Sinh Tố-Nước Ép, Hẻm 2 Đường Nguyễn Gia Thiều, Phường Võ Thị Sáu, Quận 3, Hồ Chí Minh, Việt Nam",
    "lat": 10.77954,
    "lng": 106.68913,
    "distance": 200
  },
  {
    "id": "here:pds:place:704w3gv7-f3bb803f0dbc46cf8ada198e96957315",
    "name": "Bún Bò Huế Út Hưng, Đường Trần Quốc Toản, Phường Võ Thị Sáu, Quận 3, Hồ Chí Minh, Việt Nam",
    "lat": 10.7834,
    "lng": 106.68672,
    "distance": 308
  },
  {
    "id": "here:pds:place:704w3gv7-9ab33d05b54cc77d870fd3fbcae46405",
    "name": "Sushi&Sake Pub, Đường Lê Quý Đôn, Phường Võ Thị Sáu, Quận 3, Hồ Chí Minh, Việt Nam",
    "lat": 10.78053,
    "lng": 106.6915,
    "distance": 342
  },
  {
    "id": "here:pds:place:704w3gv7-b712a23da7e9a94a52504e1ff2877390",
    "name": "Best Foodhouse, Đường Trương Định, Phường Võ Thị Sáu, Quận 3, Hồ Chí Minh, Việt Nam",
    "lat": 10.7778,
    "lng": 106.6896,
    "distance": 399
  },
  {
    "id": "here:pds:place:704w3gv7-754cab1f2dbf7e5174e2a8bba84d2a24",
    "name": "Maxxis, Đường Võ Thị Sáu, Phường Võ Thị Sáu, Quận 3, Hồ Chí Minh, Việt Nam",
    "lat": 10.78064,
    "lng": 106.68463,
    "distance": 422
  },
  {
    "id": "here:pds:place:704httek-d7d68e8fdb5a064ab92bed4afa7c005d",
    "name": "Bánh Mì Zon Zon, Đường Pasteur, Phường Võ Thị Sáu, Quận 3, Hồ Chí Minh, Việt Nam",
    "lat": 10.78356,
    "lng": 106.6924,
    "distance": 504
  },
  {
    "id": "here:pds:place:704w3gv7-bfe1f492af09477ba9e8d8ab5584ee55",
    "name": "Căn Tin 250, 250 Đường Pasteur, Phường Võ Thị Sáu, Quận 3, Hồ Chí Minh, Việt Nam",
    "lat": 10.78615,
    "lng": 106.68953,
    "distance": 562
  },
  {
    "id": "here:pds:place:704w3gv7-9c4245fb4e6443f4b3a9f5b098f6ed2c",
    "name": "Cty Cánh Buồm TNHH, 55B Đường Nguyễn Thị Minh Khai, Phường Bến Thành, Quận 1, Hồ Chí Minh, Việt Nam",
    "lat": 10.77677,
    "lng": 106.69242,
    "distance": 657
  },
  {
    "id": "here:pds:place:704w3gvs-98de4f928c02e56c19dbce5d121abd76",
    "name": "Ốc Nướng Lẩu 118, Đường Phạm Văn Đồng, Phường Hiệp Bình Chánh, Thủ Đức, Hồ Chí Minh, Việt Nam",
    "lat": 10.8268,
    "lng": 106.7166,
    "distance": 202
  },
  {
    "id": "here:pds:place:704w3gvs-b63ee3e96137cf264f0a2cb8e7609c1e",
    "name": "Bánh Tráng Trộn Hột Vịt Lộn Trứng Cút, Đường Kha Vạn Cân, Phường Hiệp Bình Chánh, Thủ Đức, Hồ Chí Minh, Việt Nam",
    "lat": 10.82679,
    "lng": 106.71223,
    "distance": 317
  },
  {
    "id": "here:pds:place:704w3gvs-4f6487d00f4454c279ef372b87adf1ca",
    "name": "Yến Sào Nha Trang, Hẻm 32/8 Đường Số 17, Phường Hiệp Bình Chánh, Thủ Đức, Hồ Chí Minh, Việt Nam",
    "lat": 10.82318,
    "lng": 106.71747,
    "distance": 407
  },
  {
    "id": "here:pds:place:704w3gve-86bf19847bbb449faca5fd3407c1bca3",
    "name": "Quán Cơm Sinh Viên, Hẻm 15 Đường Số 5, Phường Hiệp Bình Chánh, Thủ Đức, Hồ Chí Minh, Việt Nam",
    "lat": 10.82949,
    "lng": 106.71396,
    "distance": 414
  },
  {
    "id": "here:pds:place:704w3gvs-c0d45b12eda23c41d366af7eb4c025be",
    "name": "Công Ty Hải Sản Kỳ Quang.VN, Đường Số 18, Phường Hiệp Bình Chánh, Thủ Đức, Hồ Chí Minh, Việt Nam",
    "lat": 10.82433,
    "lng": 106.7192,
    "distance": 492
  },
  {
    "id": "here:pds:place:704w3gvs-3018bc8d2d8c4a0a71f154028d02a504",
    "name": "Giò Lụa Bánh Cuốn, Phường Hiệp Bình Chánh, Thủ Đức, Hồ Chí Minh, Việt Nam",
    "lat": 10.82998,
    "lng": 106.71729,
    "distance": 518
  },
  {
    "id": "here:pds:place:704w3gvs-44b0f0b8a254b759f5a6bd15632fa9d6",
    "name": "Cháo Mina, Đường Số 19, Phường Hiệp Bình Chánh, Thủ Đức, Hồ Chí Minh, Việt Nam",
    "lat": 10.82684,
    "lng": 106.7207,
    "distance": 632
  },
  {
    "id": "here:pds:place:704w3gvs-314e532afc004162a7d31ac912cde8de",
    "name": "Quán Cơm Ngọc Tâm, 202 Quốc Lộ 13, Phường Hiệp Bình Chánh, Thủ Đức, Hồ Chí Minh, Việt Nam",
    "lat": 10.83163,
    "lng": 106.71422,
    "distance": 642
  },
  {
    "id": "here:pds:place:704w3gve-fe24a72acda4e73bd457457873ddf16b",
    "name": "Cindy Wao Food & Drink, Hẻm 13 Đường Nguyễn Kiệm, Phường 3, Quận Gò Vấp, Hồ Chí Minh, Việt Nam",
    "lat": 10.81585,
    "lng": 106.67766,
    "distance": 216
  },
  {
    "id": "here:pds:place:704w3gve-505fb79da9adb35a273fec9a1b50cab2",
    "name": "Trà Sữa Hello, Hẻm 465 Đường Nguyễn Văn Công, Phường 3, Quận Gò Vấp, Hồ Chí Minh, Việt Nam",
    "lat": 10.81915,
    "lng": 106.67677,
    "distance": 581
  },
  {
    "id": "here:pds:place:704w3gv7-23dca00be2355c66bba2d8dc10453f2f",
    "name": "Yến Sào Ngọc Yến, Hẻm 178 Phan Đăng Lưu, Phường 3, Quận Phú Nhuận, Hồ Chí Minh, Việt Nam",
    "lat": 10.80047,
    "lng": 106.68147,
    "distance": 202
  },
  {
    "id": "here:pds:place:704w3gv7-21dd3633d18244f28466239cdd660d6a",
    "name": "Cơm Cháy Chà Bông Ngọc Phượng, 32B Đường Đỗ Tấn Phong, Phường 9, Quận Phú Nhuận, Hồ Chí Minh, Việt Nam",
    "lat": 10.80041,
    "lng": 106.67755,
    "distance": 327
  },
  {
    "id": "here:pds:place:704w3gv7-176617f55913b3e8a0206ac10ccd1722",
    "name": "Có Bán Mật Ong, Đường Nguyễn Kiệm, Phường 9, Quận Phú Nhuận, Hồ Chí Minh, Việt Nam",
    "lat": 10.80253,
    "lng": 106.6792,
    "distance": 397
  },
  {
    "id": "here:pds:place:704w3gv7-a8c8b3c2c656649322bcc13c6c59a235",
    "name": "Suri, Hẻm Cô Giang, Phường 1, Quận Phú Nhuận, Hồ Chí Minh, Việt Nam",
    "lat": 10.79858,
    "lng": 106.68395,
    "distance": 409
  },
  {
    "id": "here:pds:place:704w3gv7-7eb3b23dfad142febb092dd958645db3",
    "name": "Miss Đác, 343 Đường Phan Xích Long, Phường 1, Quận Phú Nhuận, Hồ Chí Minh, Việt Nam",
    "lat": 10.80105,
    "lng": 106.68355,
    "distance": 421
  },
  {
    "id": "here:pds:place:704w3gv7-712f734f1218470e8e3dc6331ed669b5",
    "name": "Hủ Tíu Nam Vang 154, Hẻm 152 Nguyễn Trọng Tuyển, Phường 8, Quận Phú Nhuận, Hồ Chí Minh, Việt Nam",
    "lat": 10.79764,
    "lng": 106.6764,
    "distance": 450
  },
  {
    "id": "here:pds:place:704w3gvk-6b4c77dde5def3bc6fd24ff1f359cc58",
    "name": "Trà Sữa Nhà Làm Bằng Lăng Tím, Đường Bùi Hữu Nghĩa, Phường 1, Quận Bình Thạnh, Hồ Chí Minh, Việt Nam",
    "lat": 10.79978,
    "lng": 106.69962,
    "distance": 204
  },
  {
    "id": "here:pds:place:704w3gv7-97167798b36814f1f926c552a4b64477",
    "name": "Tổng Vựa Mía Gia Bảo Quốc Phát Quốc Phú, Đường Vũ Tùng, Phường 1, Quận Bình Thạnh, Hồ Chí Minh, Việt Nam",
    "lat": 10.80062,
    "lng": 106.69671,
    "distance": 225
  },
  {
    "id": "here:pds:place:704w3gvk-0c8529d335352925a7b2cd724f863f74",
    "name": "Cháo Nóng Việt Soup, 13 Đường Bùi Hữu Nghĩa, Phường 2, Quận Bình Thạnh, Hồ Chí Minh, Việt Nam",
    "lat": 10.79868,
    "lng": 106.70119,
    "distance": 406
  },
  {
    "id": "here:pds:place:704w3gv7-6d0773d13cb49bd2f51308ddba3f2b2b",
    "name": "Chè Sầu Riêng, Hẻm 125 Đinh Tiên Hoàng, Phường 3, Quận Bình Thạnh, Hồ Chí Minh, Việt Nam",
    "lat": 10.79969,
    "lng": 106.69507,
    "distance": 431
  },
  {
    "id": "here:pds:place:7041r4ve-3d7d37cbb38e0f2377edfc6e20bd9d99",
    "name": "Hớt Tóc Ánh Hồng, 489 Đường Huỳnh Văn Bánh, Phường 13, Quận Phú Nhuận, Hồ Chí Minh, Việt Nam",
    "lat": 10.79164,
    "lng": 106.67008,
    "distance": 237
  },
  {
    "id": "here:pds:place:704w3gv7-7b692e8f49ff11c8de9b9163c6c050f1",
    "name": "Súp Cua 68, Đường Trần Hữu Trang, Phường 10, Quận Phú Nhuận, Hồ Chí Minh, Việt Nam",
    "lat": 10.794,
    "lng": 106.67312,
    "distance": 262
  },
  {
    "id": "here:pds:place:704w3gv7-6d74a2ee4e73679b309cb2356b24a7b0",
    "name": "Tiệm Trà Thanh Xuân, Hẻm 48 Hồ Biểu Chánh, Phường 11, Quận Phú Nhuận, Hồ Chí Minh, Việt Nam",
    "lat": 10.79257,
    "lng": 106.67516,
    "distance": 330
  },
  {
    "id": "here:pds:place:704w3gv7-a4f9603e1735e65d2075e259a781178b",
    "name": "Phẩu Thuật Thẩm Mỹ Khang Vĩnh, 1098 Đường Trường Sa, Phường 12, Quận 3, Hồ Chí Minh, Việt Nam",
    "lat": 10.78821,
    "lng": 106.67139,
    "distance": 411
  },
  {
    "id": "here:pds:place:704w3gv7-b35358f0532b4414a8a70337f9a258c6",
    "name": "Thảo Nguyên, 33 Đường Đặng Văn Ngữ, Phường 10, Quận Phú Nhuận, Hồ Chí Minh, Việt Nam",
    "lat": 10.79511,
    "lng": 106.66973,
    "distance": 458
  },
  {
    "id": "here:pds:place:704w3gv7-fec8e6dbc395668f9e3117191892eee2",
    "name": "A Ché Chè & Nước Ép, Hẻm 29 Hoàng Diệu, Phường 10, Quận Phú Nhuận, Hồ Chí Minh, Việt Nam",
    "lat": 10.79587,
    "lng": 106.67146,
    "distance": 459
  },
  {
    "id": "here:pds:place:704w3gv7-f4f1b07aa184082fbfc342fbb6e6a8e1",
    "name": "Bánh Xèo Bà Như, Đường Trường Sa, Phường 13, Quận Phú Nhuận, Hồ Chí Minh, Việt Nam",
    "lat": 10.78876,
    "lng": 106.66931,
    "distance": 466
  },
  {
    "id": "here:pds:place:704w3gv7-995fcd558a878ceb2d058f78969b2e4a",
    "name": "Bánh Mì Hà Nội, 3 Đường Lê Quý Đôn, Phường 11, Quận Phú Nhuận, Hồ Chí Minh, Việt Nam",
    "lat": 10.79197,
    "lng": 106.67984,
    "distance": 220
  },
  {
    "id": "here:pds:place:704w3gv7-971df3500fad21d9a660a1943bd8e5fb",
    "name": "Kem Ly Sữa Chua Yaourt, Hẻm 55 Phan Đình Phùng, Phường 17, Quận Phú Nhuận, Hồ Chí Minh, Việt Nam",
    "lat": 10.79289,
    "lng": 106.68488,
    "distance": 363
  },
  {
    "id": "here:pds:place:704w3gv7-bb67f29160bfecc0e8d57f44a75d6172",
    "name": "Teatime, Hẻm 220 Lê Văn Sỹ, Phường 14, Quận 3, Hồ Chí Minh, Việt Nam",
    "lat": 10.78818,
    "lng": 106.6819,
    "distance": 383
  },
  {
    "id": "here:pds:place:704w3gv7-5fb00531f2774f5056201f6c1f248761",
    "name": "Việt Úc Fruit, 45 Đường Trần Quang Diệu, Phường 14, Quận 3, Hồ Chí Minh, Việt Nam",
    "lat": 10.78946,
    "lng": 106.67907,
    "distance": 385
  },
  {
    "id": "here:pds:place:704w3gv7-f14c4fa8cc77d54a1d76f5fb06903b07",
    "name": "Bánh Tráng Long An, Đường Hồng Hà, Phường 9, Quận Phú Nhuận, Hồ Chí Minh, Việt Nam",
    "lat": 10.8086,
    "lng": 106.6753,
    "distance": 245
  },
  {
    "id": "here:pds:place:704w3gve-e4cd769a0609996c382182590e1cc417",
    "name": "Món Ngon Thực Dưỡng, 2 Đường Hồng Hà, Phường 9, Quận Phú Nhuận, Hồ Chí Minh, Việt Nam",
    "lat": 10.81016,
    "lng": 106.67204,
    "distance": 255
  },
  {
    "id": "here:pds:place:704w3gv7-eda694d710b4465ebd13e17719397aee",
    "name": "Nong Trai Xanh, Hẻm 86 Phổ Quang, Phường 2, Quận Tân Bình, Hồ Chí Minh, Việt Nam",
    "lat": 10.80857,
    "lng": 106.66974,
    "distance": 371
  },
  {
    "id": "here:pds:place:704w3gv7-5ae991683ec1e46b31d1dd9aa081e248",
    "name": "Đại Lý-PP Độc Quyền An Khanh Buzz, 29 Đường Đào Duy Anh, Phường 9, Quận Phú Nhuận, Hồ Chí Minh, Việt Nam",
    "lat": 10.80661,
    "lng": 106.67647,
    "distance": 404
  },
  {
    "id": "here:pds:place:704w3gv7-beeed8e83e7358cbf0c1ac9de5ce49bf",
    "name": "izzibing snow kem tuyết, 49 Đường Phổ Quang, Phường 2, Quận Tân Bình, Hồ Chí Minh, Việt Nam",
    "lat": 10.80628,
    "lng": 106.66935,
    "distance": 459
  },
  {
    "id": "here:pds:place:704w3gvm-5caca219c51fbf4418e036c1060c1270",
    "name": "Cơm Bình Dân Cô Thảo, Đường Hồ Văn Huê, Phường 9, Quận Phú Nhuận, Hồ Chí Minh, Việt Nam",
    "lat": 10.80378,
    "lng": 106.67516,
    "distance": 532
  },
  {
    "id": "here:pds:place:704w3gv7-d177edea4c672cfdf7ca1db26ead3fed",
    "name": "Bánh Cuốn Nóng Hà, 11 Đường Bùi Văn Thêm, Phường 9, Quận Phú Nhuận, Hồ Chí Minh, Việt Nam",
    "lat": 10.80762,
    "lng": 106.67804,
    "distance": 541
  },
  {
    "id": "here:pds:place:704w3gve-cd38f09a25ec4ca18aad45de3abcf66d",
    "name": "Bánh Mì Quỳnh, Đường Yên Thế, Phường 2, Quận Tân Bình, Hồ Chí Minh, Việt Nam",
    "lat": 10.81061,
    "lng": 106.66828,
    "distance": 596
  },
  {
    "id": "here:pds:place:704w3gv7-314458999953bbd47588d79832975fe9",
    "name": "Công Ty TNHH Sản Xuất Thương Mại Khô Gà Xé, Đường Vũ Tùng, Phường 1, Quận Bình Thạnh, Hồ Chí Minh, Việt Nam",
    "lat": 10.80065,
    "lng": 106.69842,
    "distance": 299
  },
  {
    "id": "here:pds:place:704w3gv4-4b1a00254ab24708ac33e83644e1c344",
    "name": "Phở Tái Thành Thái, Đường Phan Văn Trị, Phường 14, Quận Bình Thạnh, Hồ Chí Minh, Việt Nam",
    "lat": 10.80639,
    "lng": 106.69737,
    "distance": 370
  },
  {
    "id": "here:pds:place:704w3gvk-841ec84be0735947ae663d8fc00b1876",
    "name": "Cửa Hàng 142A, Đường Vũ Tùng, Phường 2, Quận Bình Thạnh, Hồ Chí Minh, Việt Nam",
    "lat": 10.80232,
    "lng": 106.70233,
    "distance": 413
  },
  {
    "id": "here:pds:place:704w3gv7-cb786a45773b276d4405d1dcb4a3a3ac",
    "name": "Hậu, Đường Bùi Đình Túy, Phường 24, Quận Bình Thạnh, Hồ Chí Minh, Việt Nam",
    "lat": 10.8072,
    "lng": 106.69902,
    "distance": 432
  },
  {
    "id": "here:pds:place:704w3gv7-1174c17d4f74ff65f2e0e196230afe3f",
    "name": "Bún Riêu, 5 Đường Nơ Trang Long, Phường 14, Quận Bình Thạnh, Hồ Chí Minh, Việt Nam",
    "lat": 10.80508,
    "lng": 106.69499,
    "distance": 449
  },
  {
    "id": "here:pds:place:704w3gvk-47bede9cb09d87ca02240d1396ad16d0",
    "name": "Đăng Thịnh Đậu Hủ Gia Truyền-Sữa Đậu Nành Nguyên Chất, Đường Bùi Đình Túy, Phường 12, Quận Bình Thạnh, Hồ Chí Minh, Việt Nam",
    "lat": 10.80767,
    "lng": 106.70548,
    "distance": 209
  },
  {
    "id": "here:pds:place:704w3gvk-b03f789bb81559e7b84230b0138c8fdf",
    "name": "A Phát Vịt Cỏ, Đường Bùi Đình Túy, Phường 12, Quận Bình Thạnh, Hồ Chí Minh, Việt Nam",
    "lat": 10.80753,
    "lng": 106.70153,
    "distance": 225
  },
  {
    "id": "here:pds:place:704w3gvs-d3dbab31663926ece47a2af7ba89edbd",
    "name": "Trà Sữa Cô Beth, 261 Đường Chu Văn An, Phường 12, Quận Bình Thạnh, Hồ Chí Minh, Việt Nam",
    "lat": 10.81087,
    "lng": 106.70188,
    "distance": 390
  },
  {
    "id": "here:pds:place:704w3gvk-8077ee0348b65d7be5dbaa32392a54f7",
    "name": "Tổ Yến Kim Hoàng Yến, Đường Ngô Đức Kế, Phường 12, Quận Bình Thạnh, Hồ Chí Minh, Việt Nam",
    "lat": 10.80869,
    "lng": 106.69981,
    "distance": 423
  },
  {
    "id": "here:pds:place:704w3gvk-4f324852b7d27be18f6dd5b64fdc96dd",
    "name": "Đặc Sản Ngon Sạch, Hẻm 194 Đường Bạch Đằng, Phường 24, Quận Bình Thạnh, Hồ Chí Minh, Việt Nam",
    "lat": 10.80419,
    "lng": 106.70581,
    "distance": 468
  },
  {
    "id": "here:pds:place:704w3gvs-f4fe87ab40cdcc8f4cc4f466bd8e8b7e",
    "name": "Cơm Bình Dân 25K, 20 Đường Nguyễn Xí, Phường 26, Quận Bình Thạnh, Hồ Chí Minh, Việt Nam",
    "lat": 10.81285,
    "lng": 106.70863,
    "distance": 256
  },
  {
    "id": "here:pds:place:704w3gvs-bd66cd43d6fdad48f08c22fc6316d7ab",
    "name": "Bánh Tráng Trộn-Cuốn-Nướng-Tỏi, 28B Đường Số 8, Phường 26, Quận Bình Thạnh, Hồ Chí Minh, Việt Nam",
    "lat": 10.81197,
    "lng": 106.70678,
    "distance": 386
  },
  {
    "id": "here:pds:place:704w3gvs-06777808db39f6bc6b87ba9495e5b750",
    "name": "Quán Trà Sữa Coffee B&B, Hẻm 76 Nguyễn Xí, Phường 26, Quận Bình Thạnh, Hồ Chí Minh, Việt Nam",
    "lat": 10.81221,
    "lng": 106.71071,
    "distance": 420
  },
  {
    "id": "here:pds:place:704w3gvs-af1f475f32125a9cde33019abe6a5ff0",
    "name": "Toco Toco, Đường Nguyễn Xí, Phường 13, Quận Bình Thạnh, Hồ Chí Minh, Việt Nam",
    "lat": 10.81813,
    "lng": 106.70553,
    "distance": 448
  },
  {
    "id": "here:pds:place:704w3gvk-c8c3a72ed0823d9e3d98196dc160fd08",
    "name": "Tré Trộn Nhà Cô Nhỏ, Đường Chu Văn An, Phường 26, Quận Bình Thạnh, Hồ Chí Minh, Việt Nam",
    "lat": 10.81036,
    "lng": 106.71078,
    "distance": 597
  },
  {
    "id": "here:pds:place:704w3gv7-fb0314d1efee48b3b8a840f099618336",
    "name": "Bánh Cuốn Nóng, Hẻm 153 Nguyễn Thượng Hiền, Phường 6, Quận Bình Thạnh, Hồ Chí Minh, Việt Nam",
    "lat": 10.80793,
    "lng": 106.68483,
    "distance": 207
  },
  {
    "id": "here:pds:place:704w3gv7-309d10345398489a86021c2715f55f3f",
    "name": "Quán Nhậu Bình Dân 333, Hẻm 220/51 Đường Hoàng Hoa Thám, Phường 5, Quận Bình Thạnh, Hồ Chí Minh, Việt Nam",
    "lat": 10.80981,
    "lng": 106.68613,
    "distance": 248
  },
  {
    "id": "here:pds:place:704w3gve-6f874ad772bd1d9829cfa1ccc3e907d2",
    "name": "Cháo Lòng, 15 Đường Nguyễn Thượng Hiền, Phường 5, Quận Bình Thạnh, Hồ Chí Minh, Việt Nam",
    "lat": 10.81285,
    "lng": 106.68563,
    "distance": 415
  },
  {
    "id": "here:pds:place:704jx7ps-681df5f75d9f02c1fb77cb0af1994c3f",
    "name": "Ngự Yến Foods, Hẻm 308 Đường Nguyễn Thượng Hiền, Phường 5, Quận Phú Nhuận, Hồ Chí Minh, Việt Nam",
    "lat": 10.80583,
    "lng": 106.68558,
    "distance": 452
  },
  {
    "id": "here:pds:place:704w3gv7-0cf254741875595ff42aae780ebfbed8",
    "name": "Reviet Juice, 63 Đường Nguyễn Văn Đậu, Phường 6, Quận Bình Thạnh, Hồ Chí Minh, Việt Nam",
    "lat": 10.80796,
    "lng": 106.68784,
    "distance": 467
  },
  {
    "id": "here:pds:place:704w3gv7-d8cfc19c58724d64aaa0fbde5dd2143f",
    "name": "Sunday Basic, Đường Thích Quảng Đức, Phường 5, Quận Phú Nhuận, Hồ Chí Minh, Việt Nam",
    "lat": 10.80681,
    "lng": 106.68054,
    "distance": 475
  },
  {
    "id": "here:pds:place:704w3gv7-7e284e6e7006da044bad5be38ed09dbd",
    "name": "3 Râu, Hẻm 86 Thích Quảng Đức, Phường 5, Quận Phú Nhuận, Hồ Chí Minh, Việt Nam",
    "lat": 10.80518,
    "lng": 106.68268,
    "distance": 502
  },
  {
    "id": "here:pds:place:704w3gv7-6d163d5d1333452b99a89aa6597b1ca1",
    "name": "Bột Chiên Khoai Môn, 182 Đường Đinh Tiên Hoàng, Phường Đa Kao, Quận 1, Hồ Chí Minh, Việt Nam",
    "lat": 10.7917,
    "lng": 106.6961,
    "distance": 201
  },
  {
    "id": "here:pds:place:704w3gv7-7ada10baeb7e4b87eac59a8e6bb3ab97",
    "name": "Sinh Tố Úm Ba La Nữ Hoàng Hiện Ra, Đường Hoàng Sa, Phường Tân Định, Quận 1, Hồ Chí Minh, Việt Nam",
    "lat": 10.79388,
    "lng": 106.69406,
    "distance": 213
  },
  {
    "id": "here:pds:place:704w3gv7-d88af9795796737b548548654cb78b4f",
    "name": "Bánh Căn-Xèo Bánh Canh Phan Rang, Hẻm 82 Lê Văn Duyệt, Phường 1, Quận Bình Thạnh, Hồ Chí Minh, Việt Nam",
    "lat": 10.7958,
    "lng": 106.69627,
    "distance": 258
  },
  {
    "id": "here:pds:place:704w3gv7-4ce1f58c18e7bb67a20d28adf57901d8",
    "name": "Bánh Mì 58, Đường Bùi Hữu Nghĩa, Phường 1, Quận Bình Thạnh, Hồ Chí Minh, Việt Nam",
    "lat": 10.79483,
    "lng": 106.69796,
    "distance": 263
  },
  {
    "id": "here:pds:place:704w3gv7-56168de112c5c33a784f5356b8fd0756",
    "name": "Bánh Tráng Trộn Thơm Ngon, Đường Nguyễn Phi Khanh, Phường Tân Định, Quận 1, Hồ Chí Minh, Việt Nam",
    "lat": 10.79158,
    "lng": 106.69395,
    "distance": 307
  },
  {
    "id": "here:pds:place:704w3gv7-a5d7edf8786a062dd0ad7775b4a98574",
    "name": "Cơ Sở Trái Cây Sạch Hồng Đức, Vũ Huy Tấn, Phường 3, Quận Bình Thạnh, Hồ Chí Minh, Việt Nam",
    "lat": 10.79574,
    "lng": 106.69391,
    "distance": 336
  },
  {
    "id": "here:pds:place:704w3gv7-34841746b3418b2e5365ebb66aab74ee",
    "name": "Sinh Tố 62, 18 Đường Điện Biên Phủ, Phường Đa Kao, Quận 1, Hồ Chí Minh, Việt Nam",
    "lat": 10.79195,
    "lng": 106.6987,
    "distance": 344
  },
  {
    "id": "here:pds:place:704w3gv7-5456c669e91f4c02a497a165507b6248",
    "name": "DNTN Kim Liên, 98 Đường Điện Biên Phủ, Phường Đa Kao, Quận 1, Hồ Chí Minh, Việt Nam",
    "lat": 10.7898,
    "lng": 106.69691,
    "distance": 424
  },
  {
    "id": "here:pds:place:704w3gvk-bc5665b3169ec6a5e2500d5dbfa4418e",
    "name": "Trà Sữa Chị 2 Lúa, Hẻm 27 Đường Điện Biên Phủ, Phường 15, Quận Bình Thạnh, Hồ Chí Minh, Việt Nam",
    "lat": 10.79493,
    "lng": 106.69985,
    "distance": 453
  },
  {
    "id": "here:pds:place:704w3gv7-bcd6b3904fcf4fce8761ab137f56dfea",
    "name": "Bột Chiên Cô Lộc, 3 Hẻm 128 Lê Văn Duyệt, Phường 1, Quận Bình Thạnh, Hồ Chí Minh, Việt Nam",
    "lat": 10.79764,
    "lng": 106.69646,
    "distance": 463
  },
  {
    "id": "here:pds:place:704w3gvk-4329f66db8b7249794091a91ef0d5262",
    "name": "Rizu, Đường Phan Văn Hân, Phường 17, Quận Bình Thạnh, Hồ Chí Minh, Việt Nam",
    "lat": 10.79302,
    "lng": 106.70722,
    "distance": 238
  },
  {
    "id": "here:pds:place:704w3gvk-b83cd19279d0c786795477346f2057e4",
    "name": "Sữa Đậu Nành, 75 Đường Điện Biên Phủ, Phường 15, Quận Bình Thạnh, Hồ Chí Minh, Việt Nam",
    "lat": 10.79573,
    "lng": 106.70234,
    "distance": 384
  }
]